var gauges = {"type":"FeatureCollection","features":[
    {"type":"Feature","geometry":{"type":"Point","coordinates":[172.93000000,1.36166667]},"properties":{"title":"Betio, KIR","code":"tara"}},
    {"type":"Feature","geometry":{"type":"Point","coordinates":[-90.28500000,-0.43500000]},"properties":{"title":"Baltra, ECU","code":"balt"}},
    {"type":"Feature","geometry":{"type":"Point","coordinates":[166.91000000,-0.53166667]},"properties":{"title":"Nauru, NRU","code":"nauu"}},
    {"type":"Feature","geometry":{"type":"Point","coordinates":[171.37333333,7.10666667]},"properties":{"title":"Majuro, MHL","code":"maju"}},
    {"type":"Feature","geometry":{"type":"Point","coordinates":[134.46333333,7.33000000]},"properties":{"title":"Malakal, PLW","code":"mala"}},
    {"type":"Feature","geometry":{"type":"Point","coordinates":[138.12833333,9.50833333]},"properties":{"title":"Yap, FSM","code":"yapi"}},
    {"type":"Feature","geometry":{"type":"Point","coordinates":[159.95666667,-9.42500000]},"properties":{"title":"Honiara, SLB","code":"solo"}},
    {"type":"Feature","geometry":{"type":"Point","coordinates":[-157.47166667,1.98166667]},"properties":{"title":"Christmas Island, KIR","code":"xmas"}},
    {"type":"Feature","geometry":{"type":"Point","coordinates":[-149.56666667,-17.52500000]},"properties":{"title":"Papeete, PYF","code":"pape"}},
    {"type":"Feature","geometry":{"type":"Point","coordinates":[-134.95333333,-23.12500000]},"properties":{"title":"Rikitea, PYF","code":"riki"}},
    {"type":"Feature","geometry":{"type":"Point","coordinates":[178.42666667,-18.13166667]},"properties":{"title":"Suva, FJI","code":"viti"}},
    {"type":"Feature","geometry":{"type":"Point","coordinates":[166.41666667,-22.24166667]},"properties":{"title":"Noumea, NCL","code":"numb"}},
    {"type":"Feature","geometry":{"type":"Point","coordinates":[-78.83333333,-33.62166667]},"properties":{"title":"Juan Fernandez, CHL","code":"juan"}},
    {"type":"Feature","geometry":{"type":"Point","coordinates":[-109.44833333,-27.15000000]},"properties":{"title":"Easter Island, CHL","code":"east"}},
    {"type":"Feature","geometry":{"type":"Point","coordinates":[-159.77500000,-21.20666667]},"properties":{"title":"Rarotonga, COK","code":"raro"}},
    {"type":"Feature","geometry":{"type":"Point","coordinates":[-158.05333333,-8.97666667]},"properties":{"title":"Penrhyn, COK","code":"penr"}},
    {"type":"Feature","geometry":{"type":"Point","coordinates":[179.19500000,-8.52500000]},"properties":{"title":"Funafuti, TUV","code":"funa"}},
    {"type":"Feature","geometry":{"type":"Point","coordinates":[145.74166667,15.22666667]},"properties":{"title":"Saipan, MNP","code":"saip"}},
    {"type":"Feature","geometry":{"type":"Point","coordinates":[154.77666667,1.09833333]},"properties":{"title":"Kapingamarangi, FSM","code":"kapi"}},
    {"type":"Feature","geometry":{"type":"Point","coordinates":[-90.31166667,-0.75333333]},"properties":{"title":"Santa Cruz, ECU","code":"sant"}},
    {"type":"Feature","geometry":{"type":"Point","coordinates":[-109.90833333,22.88000000]},"properties":{"title":"Cabo San Lucas, MEX","code":"cslu"}},
    {"type":"Feature","geometry":{"type":"Point","coordinates":[-80.13333333,-26.28333333]},"properties":{"title":"San Felix, CHL","code":"sanf"}},
    {"type":"Feature","geometry":{"type":"Point","coordinates":[-175.16666667,-21.13333333]},"properties":{"title":"Nukualofa, TON","code":"nkfa"}},
    {"type":"Feature","geometry":{"type":"Point","coordinates":[-152.51166667,57.73166667]},"properties":{"title":"Kodiak , USA","code":"kodi"}},
    {"type":"Feature","geometry":{"type":"Point","coordinates":[-176.63500000,51.85833333]},"properties":{"title":"Adak, USA","code":"adak"}},
    {"type":"Feature","geometry":{"type":"Point","coordinates":[-166.53833333,53.88000000]},"properties":{"title":"Dutch Harbor, USA","code":"dutc"}},
    {"type":"Feature","geometry":{"type":"Point","coordinates":[168.30000000,-17.76666667]},"properties":{"title":"Port Vila, VUT","code":"vanu"}},
    {"type":"Feature","geometry":{"type":"Point","coordinates":[142.18333333,27.10000000]},"properties":{"title":"Chichijima, JPN","code":"chij"}},
    {"type":"Feature","geometry":{"type":"Point","coordinates":[-177.36666667,28.21666667]},"properties":{"title":"Midway Island, USA","code":"midx"}},
    {"type":"Feature","geometry":{"type":"Point","coordinates":[166.61666667,19.28333333]},"properties":{"title":"Wake Island, USA","code":"wake"}},
    {"type":"Feature","geometry":{"type":"Point","coordinates":[-169.51666667,16.75000000]},"properties":{"title":"Johnston Island, USA","code":"john"}},
    {"type":"Feature","geometry":{"type":"Point","coordinates":[144.65000000,13.43333333]},"properties":{"title":"Guam, GUM","code":"guam"}},
    {"type":"Feature","geometry":{"type":"Point","coordinates":[167.73333333,8.73333333]},"properties":{"title":"Kwajalein, MHL","code":"kwaj"}},
    {"type":"Feature","geometry":{"type":"Point","coordinates":[-170.68333333,-14.28333333]},"properties":{"title":"Pago Pago, ASM","code":"pago"}},
    {"type":"Feature","geometry":{"type":"Point","coordinates":[-157.86666667,21.30666667]},"properties":{"title":"Honolulu, USA","code":"hono"}},
    {"type":"Feature","geometry":{"type":"Point","coordinates":[-159.35000000,21.96666667]},"properties":{"title":"Nawiliwili, USA","code":"nawi"}},
    {"type":"Feature","geometry":{"type":"Point","coordinates":[-156.46666667,20.90000000]},"properties":{"title":"Kahului, USA","code":"kahu"}},
    {"type":"Feature","geometry":{"type":"Point","coordinates":[-155.06666667,19.73333333]},"properties":{"title":"Hilo, USA","code":"hilo"}},
    {"type":"Feature","geometry":{"type":"Point","coordinates":[-157.80000000,21.43333333]},"properties":{"title":"Mokuoloe, USA","code":"moku"}},
    {"type":"Feature","geometry":{"type":"Point","coordinates":[174.78333333,-41.28333333]},"properties":{"title":"Wellington, NZL","code":"wigt"}},
    {"type":"Feature","geometry":{"type":"Point","coordinates":[-70.40000000,-23.65000000]},"properties":{"title":"Antofagasta, CHL","code":"anto"}},
    {"type":"Feature","geometry":{"type":"Point","coordinates":[-71.63333333,-33.03333333]},"properties":{"title":"Valparaiso, CHL","code":"valp"}},
    {"type":"Feature","geometry":{"type":"Point","coordinates":[-70.83333333,-27.06666667]},"properties":{"title":"Caldera, CHL","code":"cald"}},
    {"type":"Feature","geometry":{"type":"Point","coordinates":[-80.91666667,-2.20000000]},"properties":{"title":"La Libertad, ECU","code":"lali"}},
    {"type":"Feature","geometry":{"type":"Point","coordinates":[-77.15000000,-12.05000000]},"properties":{"title":"Callao, PER","code":"call"}},
    {"type":"Feature","geometry":{"type":"Point","coordinates":[-72.10833333,-17.00166667]},"properties":{"title":"Matarani, PER","code":"mata"}},
    {"type":"Feature","geometry":{"type":"Point","coordinates":[57.49500000,-20.15500000]},"properties":{"title":"Port Louis, MDV","code":"ptlu"}},
    {"type":"Feature","geometry":{"type":"Point","coordinates":[63.41833333,-19.66833333]},"properties":{"title":"Rodrigues, MUS","code":"rodr"}},
    {"type":"Feature","geometry":{"type":"Point","coordinates":[73.53333333,4.18333333]},"properties":{"title":"Hulhule, MDV","code":"male"}},
    {"type":"Feature","geometry":{"type":"Point","coordinates":[73.15166667,-0.68666667]},"properties":{"title":"Gan, MDV","code":"ganm"}},
    {"type":"Feature","geometry":{"type":"Point","coordinates":[54.00666667,16.93500000]},"properties":{"title":"Salalah, OMN","code":"sala"}},
    {"type":"Feature","geometry":{"type":"Point","coordinates":[55.52833333,-4.67166667]},"properties":{"title":"Pointe La  Rue, SYC","code":"plru"}},
    {"type":"Feature","geometry":{"type":"Point","coordinates":[39.60000000,-69.00000000]},"properties":{"title":"Syowa, JPN","code":"syow"}},
    {"type":"Feature","geometry":{"type":"Point","coordinates":[133.64000000,-32.15000000]},"properties":{"title":"Thevenard, AUS","code":"thev"}},
    {"type":"Feature","geometry":{"type":"Point","coordinates":[141.61333333,-38.34333333]},"properties":{"title":"Portland, AUS","code":"poau"}},
    {"type":"Feature","geometry":{"type":"Point","coordinates":[99.76500000,6.43166667]},"properties":{"title":"Langkawi, MYS","code":"lank"}},
    {"type":"Feature","geometry":{"type":"Point","coordinates":[98.42500000,7.83166667]},"properties":{"title":"Ko Taphao Noi, THA","code":"kota"}},
    {"type":"Feature","geometry":{"type":"Point","coordinates":[40.90333333,-2.27166667]},"properties":{"title":"Lamu, KEN","code":"lamu"}},
    {"type":"Feature","geometry":{"type":"Point","coordinates":[39.19000000,-6.15500000]},"properties":{"title":"Zanzibar, TZA","code":"zanz"}},
    {"type":"Feature","geometry":{"type":"Point","coordinates":[122.21666667,-18.00000000]},"properties":{"title":"Broome, AUS","code":"brom"}},
    {"type":"Feature","geometry":{"type":"Point","coordinates":[113.61666667,-24.88333333]},"properties":{"title":"Carnarvon, AUS","code":"carn"}},
    {"type":"Feature","geometry":{"type":"Point","coordinates":[130.85000000,-12.46666667]},"properties":{"title":"Darwin, AUS","code":"darw"}},
    {"type":"Feature","geometry":{"type":"Point","coordinates":[118.56666667,-20.31666667]},"properties":{"title":"Port Hedland, AUS","code":"pohe"}},
    {"type":"Feature","geometry":{"type":"Point","coordinates":[96.90000000,-12.11666667]},"properties":{"title":"Cocos Island, AUS","code":"cocb"}},
    {"type":"Feature","geometry":{"type":"Point","coordinates":[115.73333333,-32.05000000]},"properties":{"title":"Fremantle, AUS","code":"frem"}},
    {"type":"Feature","geometry":{"type":"Point","coordinates":[121.90000000,-33.86666667]},"properties":{"title":"Esperance, AUS","code":"espe"}},
    {"type":"Feature","geometry":{"type":"Point","coordinates":[70.22000000,-49.34500000]},"properties":{"title":"Kerguelen, FRA","code":"kerg"}},
    {"type":"Feature","geometry":{"type":"Point","coordinates":[25.63000000,-33.96000000]},"properties":{"title":"Port Elizabeth, ZAF","code":"poel"}},
    {"type":"Feature","geometry":{"type":"Point","coordinates":[-5.31666667,35.90000000]},"properties":{"title":"Ceuta, ESP","code":"ceut"}},
    {"type":"Feature","geometry":{"type":"Point","coordinates":[-25.67333333,37.73500000]},"properties":{"title":"Ponta Delgada, PRT","code":"pdas"}},
    {"type":"Feature","geometry":{"type":"Point","coordinates":[-15.40666667,28.14833333]},"properties":{"title":"Las Palmas, ESP","code":"lapa"}},
    {"type":"Feature","geometry":{"type":"Point","coordinates":[-16.90666667,32.64000000]},"properties":{"title":"Funchal, PRT","code":"func"}},
    {"type":"Feature","geometry":{"type":"Point","coordinates":[-81.80833333,24.55333333]},"properties":{"title":"Key West, USA","code":"kwfl"}},
    {"type":"Feature","geometry":{"type":"Point","coordinates":[-66.11666667,18.46000000]},"properties":{"title":"San Juan, PRI","code":"sanj"}},
    {"type":"Feature","geometry":{"type":"Point","coordinates":[-71.32666667,41.50500000]},"properties":{"title":"Newport, USA","code":"neri"}},
    {"type":"Feature","geometry":{"type":"Point","coordinates":[-64.70333333,32.37333333]},"properties":{"title":"Bermuda, BMU","code":"bmda"}},
    {"type":"Feature","geometry":{"type":"Point","coordinates":[-75.74000000,36.18333333]},"properties":{"title":"Duck Pier, USA","code":"dpnc"}},
    {"type":"Feature","geometry":{"type":"Point","coordinates":[-79.93333333,32.78333333]},"properties":{"title":"Charleston, USA","code":"chsc"}},
    {"type":"Feature","geometry":{"type":"Point","coordinates":[-74.41833333,39.35500000]},"properties":{"title":"Atlantic City, USA","code":"acnj"}},
    {"type":"Feature","geometry":{"type":"Point","coordinates":[-79.90000000,9.35000000]},"properties":{"title":"Cristobal, PAN","code":"cris"}},
    {"type":"Feature","geometry":{"type":"Point","coordinates":[-94.20000000,58.78333333]},"properties":{"title":"Churchill, CAN","code":"chur"}},
    {"type":"Feature","geometry":{"type":"Point","coordinates":[-63.58333333,44.66666667]},"properties":{"title":"Halifax, CAN","code":"hali"}},
    {"type":"Feature","geometry":{"type":"Point","coordinates":[-52.71666667,47.56666667]},"properties":{"title":"St. John, CAN","code":"stjo"}},
    {"type":"Feature","geometry":{"type":"Point","coordinates":[-43.16500000,-22.89666667]},"properties":{"title":"Ilha Fiscal, BRA","code":"ilfi"}},
    {"type":"Feature","geometry":{"type":"Point","coordinates":[-57.93333333,-51.75000000]},"properties":{"title":"Port Stanley, GBR","code":"stan"}},
    {"type":"Feature","geometry":{"type":"Point","coordinates":[-1.13833333,60.15333333]},"properties":{"title":"Lerwick, IRL","code":"lerw"}},
    {"type":"Feature","geometry":{"type":"Point","coordinates":[-5.54166667,50.10166667]},"properties":{"title":"Newlyn, GBR","code":"newl"}},
    {"type":"Feature","geometry":{"type":"Point","coordinates":[-6.38833333,58.20833333]},"properties":{"title":"Stornoway, GBR","code":"stor"}},
    {"type":"Feature","geometry":{"type":"Point","coordinates":[-79.57333333,8.96166667]},"properties":{"title":"Balboa, PAN","code":"balb"}},
    {"type":"Feature","geometry":{"type":"Point","coordinates":[99.81666667,11.79500000]},"properties":{"title":"Ko Lak, THA","code":"kola"}},
    {"type":"Feature","geometry":{"type":"Point","coordinates":[114.21666667,22.30000000]},"properties":{"title":"Quarry Bay, HKG","code":"quar"}},
    {"type":"Feature","geometry":{"type":"Point","coordinates":[153.16666667,-27.36666667]},"properties":{"title":"Brisbane, AUS","code":"brisb"}},
    {"type":"Feature","geometry":{"type":"Point","coordinates":[152.35000000,-24.83333333]},"properties":{"title":"Bundaberg, AUS","code":"bund"}},
    {"type":"Feature","geometry":{"type":"Point","coordinates":[151.23333333,-33.85000000]},"properties":{"title":"Fort Denison, AUS","code":"fden"}},
    {"type":"Feature","geometry":{"type":"Point","coordinates":[146.83333333,-19.25000000]},"properties":{"title":"Townsville, AUS","code":"twnv"}},
    {"type":"Feature","geometry":{"type":"Point","coordinates":[147.93333333,-42.55000000]},"properties":{"title":"Spring Bay, AUS","code":"sprg"}},
    {"type":"Feature","geometry":{"type":"Point","coordinates":[141.91666667,-10.60000000]},"properties":{"title":"Booby Island, AUS","code":"biau"}},
    {"type":"Feature","geometry":{"type":"Point","coordinates":[120.28166667,22.61500000]},"properties":{"title":"Kaohsiung, TWN","code":"kaos"}},
    {"type":"Feature","geometry":{"type":"Point","coordinates":[121.74500000,25.15666667]},"properties":{"title":"Keelung, TWN","code":"keel"}},
    {"type":"Feature","geometry":{"type":"Point","coordinates":[129.85000000,29.83333333]},"properties":{"title":"Nakano Sima, JPN","code":"naka"}},
    {"type":"Feature","geometry":{"type":"Point","coordinates":[144.28333333,44.01666667]},"properties":{"title":"Abashiri, JPN","code":"abas"}},
    {"type":"Feature","geometry":{"type":"Point","coordinates":[132.06666667,34.90000000]},"properties":{"title":"Hamada, JPN","code":"hmda"}},
    {"type":"Feature","geometry":{"type":"Point","coordinates":[137.21666667,36.76666667]},"properties":{"title":"Toyama, JPN","code":"toya"}},
    {"type":"Feature","geometry":{"type":"Point","coordinates":[144.38333333,42.96666667]},"properties":{"title":"Kushiro, JPN","code":"kush"}},
    {"type":"Feature","geometry":{"type":"Point","coordinates":[141.71666667,39.06666667]},"properties":{"title":"Ofunato, JPN","code":"ofun"}},
    {"type":"Feature","geometry":{"type":"Point","coordinates":[139.83333333,34.91666667]},"properties":{"title":"Mera, JPN","code":"mera"}},
    {"type":"Feature","geometry":{"type":"Point","coordinates":[135.78333333,33.46666667]},"properties":{"title":"Kushimoto, JPN","code":"kusm"}},
    {"type":"Feature","geometry":{"type":"Point","coordinates":[131.41666667,31.56666667]},"properties":{"title":"Aburatsu, JPN","code":"abur"}},
    {"type":"Feature","geometry":{"type":"Point","coordinates":[127.66666667,26.21666667]},"properties":{"title":"Naha, JPN","code":"naha"}},
    {"type":"Feature","geometry":{"type":"Point","coordinates":[137.61666667,34.68333333]},"properties":{"title":"Maisaka, JPN","code":"mais"}},
    {"type":"Feature","geometry":{"type":"Point","coordinates":[129.49833333,28.37833333]},"properties":{"title":"Naze, JPN","code":"naze"}},
    {"type":"Feature","geometry":{"type":"Point","coordinates":[141.68333333,45.40000000]},"properties":{"title":"Wakkanai, JPN","code":"waka"}},
    {"type":"Feature","geometry":{"type":"Point","coordinates":[129.86666667,32.73333333]},"properties":{"title":"Nagasaki, JPN","code":"naga"}},
    {"type":"Feature","geometry":{"type":"Point","coordinates":[130.99500000,30.73166667]},"properties":{"title":"Nisinoomote, JPN","code":"nish"}},
    {"type":"Feature","geometry":{"type":"Point","coordinates":[140.73333333,41.78333333]},"properties":{"title":"Hakodate, JPN","code":"hako"}},
    {"type":"Feature","geometry":{"type":"Point","coordinates":[124.15000000,24.33333333]},"properties":{"title":"Ishigaki, JPN","code":"ishi"}},
    {"type":"Feature","geometry":{"type":"Point","coordinates":[123.75000000,13.15000000]},"properties":{"title":"Legaspi, PHL","code":"lega"}},
    {"type":"Feature","geometry":{"type":"Point","coordinates":[-104.33333333,19.05000000]},"properties":{"title":"Manzanillo, MEX","code":"manz"}},
    {"type":"Feature","geometry":{"type":"Point","coordinates":[159.06666667,-31.53333333]},"properties":{"title":"Lord Howe Island, AUS","code":"lhis"}},
    {"type":"Feature","geometry":{"type":"Point","coordinates":[147.36666667,-2.03333333]},"properties":{"title":"Lombrum, PNG","code":"lomb"}},
    {"type":"Feature","geometry":{"type":"Point","coordinates":[177.43333333,-17.60000000]},"properties":{"title":"Lautoka, FJI","code":"levu"}},
    {"type":"Feature","geometry":{"type":"Point","coordinates":[-130.33333333,54.31666667]},"properties":{"title":"Prince Rupert, CAN","code":"prin"}},
    {"type":"Feature","geometry":{"type":"Point","coordinates":[-125.91666667,49.15000000]},"properties":{"title":"Tofino, CAN","code":"tfbc"}},
    {"type":"Feature","geometry":{"type":"Point","coordinates":[-122.46500000,37.80666667]},"properties":{"title":"San Francisco, USA","code":"sfca"}},
    {"type":"Feature","geometry":{"type":"Point","coordinates":[-155.83333333,20.03333333]},"properties":{"title":"Kawaihae, USA","code":"kawa"}},
    {"type":"Feature","geometry":{"type":"Point","coordinates":[-117.25833333,32.86666667]},"properties":{"title":"La Jolla, USA","code":"lajo"}},
    {"type":"Feature","geometry":{"type":"Point","coordinates":[-124.18333333,41.74500000]},"properties":{"title":"Crescent City, USA","code":"cres"}},
    {"type":"Feature","geometry":{"type":"Point","coordinates":[-124.61666667,48.36833333]},"properties":{"title":"Neah Bay, USA","code":"neba"}},
    {"type":"Feature","geometry":{"type":"Point","coordinates":[-135.34166667,57.05166667]},"properties":{"title":"Sitka, USA","code":"sitk"}},
    {"type":"Feature","geometry":{"type":"Point","coordinates":[-149.42666667,60.12000000]},"properties":{"title":"Seward, USA","code":"sewa"}},
    {"type":"Feature","geometry":{"type":"Point","coordinates":[-117.17333333,32.71500000]},"properties":{"title":"San Diego, USA","code":"sdca"}},
    {"type":"Feature","geometry":{"type":"Point","coordinates":[-139.73500000,59.54666667]},"properties":{"title":"Yakutat, JPN","code":"yaku"}},
    {"type":"Feature","geometry":{"type":"Point","coordinates":[-131.62500000,55.33333333]},"properties":{"title":"Ketchikan, USA","code":"keal"}},
    {"type":"Feature","geometry":{"type":"Point","coordinates":[-160.50166667,55.33666667]},"properties":{"title":"Sand Point, USA","code":"sdpt"}},
    {"type":"Feature","geometry":{"type":"Point","coordinates":[-148.52666667,70.40000000]},"properties":{"title":"Prudhoe Bay, USA","code":"pbal"}},
    {"type":"Feature","geometry":{"type":"Point","coordinates":[-124.04333333,44.62500000]},"properties":{"title":"South Beach, USA","code":"sbea"}},
    {"type":"Feature","geometry":{"type":"Point","coordinates":[-165.43000000,64.50000000]},"properties":{"title":"Nome, USA","code":"nome"}},
    {"type":"Feature","geometry":{"type":"Point","coordinates":[-72.96666667,-41.48333333]},"properties":{"title":"Puerto Madryn, ARG","code":"madr"}},
    {"type":"Feature","geometry":{"type":"Point","coordinates":[103.85333333,1.26166667]},"properties":{"title":"Tanjong, MYS","code":"tanj"}},
    {"type":"Feature","geometry":{"type":"Point","coordinates":[-64.26666667,-65.25000000]},"properties":{"title":"Faraday, GBR","code":"fara"}},
    {"type":"Feature","geometry":{"type":"Point","coordinates":[-80.90166667,32.03333333]},"properties":{"title":"Fort Pulaski, USA","code":"fpga"}},
    {"type":"Feature","geometry":{"type":"Point","coordinates":[-80.16166667,25.73166667]},"properties":{"title":"Virginia Keys, USA","code":"virg"}},
    {"type":"Feature","geometry":{"type":"Point","coordinates":[-87.21333333,30.40333333]},"properties":{"title":"Pensacola, USA","code":"pnfl"}},
    {"type":"Feature","geometry":{"type":"Point","coordinates":[-94.79333333,29.31000000]},"properties":{"title":"Galveston, USA","code":"gptx"}},
    {"type":"Feature","geometry":{"type":"Point","coordinates":[16.15000000,69.31666667]},"properties":{"title":"Andenes, NOR","code":"ande"}},
    {"type":"Feature","geometry":{"type":"Point","coordinates":[11.25000000,64.86666667]},"properties":{"title":"Rorvik, NOR","code":"rorv"}},
    {"type":"Feature","geometry":{"type":"Point","coordinates":[7.56666667,58.00000000]},"properties":{"title":"Tregde, NOR","code":"treg"}},
    {"type":"Feature","geometry":{"type":"Point","coordinates":[31.10000000,70.33333333]},"properties":{"title":"Vardo, NOR","code":"vard"}},
    {"type":"Feature","geometry":{"type":"Point","coordinates":[11.80000000,57.68333333]},"properties":{"title":"Gothenburg, SWE","code":"goto"}},
    {"type":"Feature","geometry":{"type":"Point","coordinates":[-4.50000000,48.38333333]},"properties":{"title":"Brest, FRA","code":"bres"}},
    {"type":"Feature","geometry":{"type":"Point","coordinates":[8.71666667,53.86666667]},"properties":{"title":"Cuxhaven, DEU","code":"cuxh"}},
    {"type":"Feature","geometry":{"type":"Point","coordinates":[18.08333333,59.31666667]},"properties":{"title":"Stockholm, SWE","code":"sthm"}},
    {"type":"Feature","geometry":{"type":"Point","coordinates":[-8.40000000,43.36666667]},"properties":{"title":"La Coruna, ESP","code":"coru"}},
    {"type":"Feature","geometry":{"type":"Point","coordinates":[176.18333333,-37.65000000]},"properties":{"title":"Tauranga, NZL","code":"taur"}},
    {"type":"Feature","geometry":{"type":"Point","coordinates":[174.03333333,-39.05000000]},"properties":{"title":"Taranaki, NZL","code":"tarn"}},
    {"type":"Feature","geometry":{"type":"Point","coordinates":[-80.71666667,-6.93333333]},"properties":{"title":"Lobos de Afuera, PER","code":"lape"}},
    {"type":"Feature","geometry":{"type":"Point","coordinates":[-77.10000000,3.90000000]},"properties":{"title":"Buenaventura, COL","code":"buve"}},
    {"type":"Feature","geometry":{"type":"Point","coordinates":[-81.28166667,-4.58166667]},"properties":{"title":"Talara, PER","code":"tala"}},
    {"type":"Feature","geometry":{"type":"Point","coordinates":[-79.64666667,0.99166667]},"properties":{"title":"Esmeraldas, ECU","code":"esec"}},
    {"type":"Feature","geometry":{"type":"Point","coordinates":[138.46666667,-35.10833333]},"properties":{"title":"Port Stanvac, AUS","code":"psau"}},
    {"type":"Feature","geometry":{"type":"Point","coordinates":[115.73833333,-31.82500000]},"properties":{"title":"Hillarys, AUS","code":"hill"}},
    {"type":"Feature","geometry":{"type":"Point","coordinates":[101.35833333,3.05000000]},"properties":{"title":"Kelang, MYS","code":"kela"}},
    {"type":"Feature","geometry":{"type":"Point","coordinates":[102.15333333,2.21500000]},"properties":{"title":"Keling, MYS","code":"keli"}},
    {"type":"Feature","geometry":{"type":"Point","coordinates":[100.61333333,4.24000000]},"properties":{"title":"Lumut, MYS","code":"lumu"}},
    {"type":"Feature","geometry":{"type":"Point","coordinates":[100.34666667,5.42166667]},"properties":{"title":"Penang, MYS","code":"pema"}},
    {"type":"Feature","geometry":{"type":"Point","coordinates":[136.41666667,-13.86000000]},"properties":{"title":"Groote Eylandt, AUS","code":"groo"}},
    {"type":"Feature","geometry":{"type":"Point","coordinates":[128.10166667,-15.45333333]},"properties":{"title":"Wyndham, AUS","code":"wynd"}},
    {"type":"Feature","geometry":{"type":"Point","coordinates":[-16.24000000,28.47833333]},"properties":{"title":"Tenerife, ESP","code":"tene"}},
    {"type":"Feature","geometry":{"type":"Point","coordinates":[-81.46666667,30.67166667]},"properties":{"title":"Fernandina Beach, USA","code":"fbfl"}},
    {"type":"Feature","geometry":{"type":"Point","coordinates":[-67.04666667,17.97166667]},"properties":{"title":"Magueyes Island, USA","code":"mipr"}},
    {"type":"Feature","geometry":{"type":"Point","coordinates":[-70.24666667,43.65666667]},"properties":{"title":"Portland, USA","code":"pome"}},
    {"type":"Feature","geometry":{"type":"Point","coordinates":[-64.75333333,17.69666667]},"properties":{"title":"Lime Tree Bay, USA","code":"lime"}},
    {"type":"Feature","geometry":{"type":"Point","coordinates":[-64.92000000,18.33500000]},"properties":{"title":"Charlotte Amalie, USA","code":"amal"}},
    {"type":"Feature","geometry":{"type":"Point","coordinates":[-71.96000000,41.04833333]},"properties":{"title":"Montauk, USA","code":"mony"}},
    {"type":"Feature","geometry":{"type":"Point","coordinates":[-78.73000000,1.81666667]},"properties":{"title":"Tumaco, COL","code":"tumc"}},
    {"type":"Feature","geometry":{"type":"Point","coordinates":[103.18666667,5.26500000]},"properties":{"title":"Cendering, MYS","code":"cend"}},
    {"type":"Feature","geometry":{"type":"Point","coordinates":[103.79166667,1.46166667]},"properties":{"title":"Johor Bahru, MYS","code":"joma"}},
    {"type":"Feature","geometry":{"type":"Point","coordinates":[103.43000000,3.97500000]},"properties":{"title":"Kuantan, MYS","code":"kuan"}},
    {"type":"Feature","geometry":{"type":"Point","coordinates":[104.14000000,2.80666667]},"properties":{"title":"Tioman, MYS","code":"tima"}},
    {"type":"Feature","geometry":{"type":"Point","coordinates":[104.11500000,1.93166667]},"properties":{"title":"Sedili, MYS","code":"sedi"}},
    {"type":"Feature","geometry":{"type":"Point","coordinates":[103.44333333,1.32500000]},"properties":{"title":"Kukup, MYS","code":"kuku"}},
    {"type":"Feature","geometry":{"type":"Point","coordinates":[102.10666667,6.22666667]},"properties":{"title":"Getting, MYS","code":"geti"}},
    {"type":"Feature","geometry":{"type":"Point","coordinates":[150.79000000,-23.16166667]},"properties":{"title":"Rosslyn Bay, AUS","code":"ross"}},
    {"type":"Feature","geometry":{"type":"Point","coordinates":[147.33000000,-42.88666667]},"properties":{"title":"Hobart, AUS","code":"hoba"}},
    {"type":"Feature","geometry":{"type":"Point","coordinates":[150.91166667,-34.47333333]},"properties":{"title":"Port Kembla, AUS","code":"poke"}},
    {"type":"Feature","geometry":{"type":"Point","coordinates":[147.05833333,-19.27666667]},"properties":{"title":"Cape Ferguson, AUS","code":"ferg"}},
    {"type":"Feature","geometry":{"type":"Point","coordinates":[145.91500000,-41.50000000]},"properties":{"title":"Burnie, AUS","code":"burn"}},
    {"type":"Feature","geometry":{"type":"Point","coordinates":[139.48166667,34.06666667]},"properties":{"title":"Miyake Sima, JPN","code":"miya"}},
    {"type":"Feature","geometry":{"type":"Point","coordinates":[120.96833333,14.58500000]},"properties":{"title":"Manila, PHL","code":"mani"}},
    {"type":"Feature","geometry":{"type":"Point","coordinates":[141.53333333,40.53333333]},"properties":{"title":"Hachinohe, JPN","code":"hach"}},
    {"type":"Feature","geometry":{"type":"Point","coordinates":[117.88333333,4.23333333]},"properties":{"title":"Tawau, MYS","code":"tama"}},
    {"type":"Feature","geometry":{"type":"Point","coordinates":[116.06666667,5.98333333]},"properties":{"title":"Kota Kinabalu, MYS","code":"koki"}},
    {"type":"Feature","geometry":{"type":"Point","coordinates":[113.06666667,3.21666667]},"properties":{"title":"Bintulu, MYS","code":"bint"}},
    {"type":"Feature","geometry":{"type":"Point","coordinates":[118.06666667,5.81000000]},"properties":{"title":"Sandakan, MYS","code":"sdkn"}},
    {"type":"Feature","geometry":{"type":"Point","coordinates":[174.50000000,-35.83333333]},"properties":{"title":"Marsden Point, NZL","code":"mpnz"}},
    {"type":"Feature","geometry":{"type":"Point","coordinates":[-171.75000000,-13.81666667]},"properties":{"title":"Apia, WSM","code":"upol"}},
    {"type":"Feature","geometry":{"type":"Point","coordinates":[-123.37000000,48.42166667]},"properties":{"title":"Victoria, CAN","code":"vibc"}},
    {"type":"Feature","geometry":{"type":"Point","coordinates":[-121.88833333,36.60500000]},"properties":{"title":"Monterey, USA","code":"mont"}},
    {"type":"Feature","geometry":{"type":"Point","coordinates":[-151.72000000,59.44000000]},"properties":{"title":"Seldovia, USA","code":"seak"}},
    {"type":"Feature","geometry":{"type":"Point","coordinates":[-146.36166667,61.12500000]},"properties":{"title":"Valdez, USA","code":"vaka"}},
    {"type":"Feature","geometry":{"type":"Point","coordinates":[-123.96500000,46.70833333]},"properties":{"title":"Willapa Bay, USA","code":"wiwa"}},
    {"type":"Feature","geometry":{"type":"Point","coordinates":[-120.76000000,35.17666667]},"properties":{"title":"Port San Luis, USA","code":"pslu"}},
    {"type":"Feature","geometry":{"type":"Point","coordinates":[-118.27166667,33.72000000]},"properties":{"title":"Los Angeles, USA","code":"losa"}},
    {"type":"Feature","geometry":{"type":"Point","coordinates":[-123.76666667,46.20833333]},"properties":{"title":"Astoria, USA","code":"asto"}},
    {"type":"Feature","geometry":{"type":"Point","coordinates":[-123.70833333,38.91333333]},"properties":{"title":"Arena Cove, USA","code":"aren"}},
    {"type":"Feature","geometry":{"type":"Point","coordinates":[-124.32166667,43.34500000]},"properties":{"title":"Charleston, USA","code":"char"}},
    {"type":"Feature","geometry":{"type":"Point","coordinates":[-124.21666667,40.76666667]},"properties":{"title":"Humboldt Bay, USA","code":"hbca"}},
    {"type":"Feature","geometry":{"type":"Point","coordinates":[-118.50000000,34.00833333]},"properties":{"title":"Santa Monica, USA","code":"smca"}},
    {"type":"Feature","geometry":{"type":"Point","coordinates":[-145.75333333,60.55833333]},"properties":{"title":"Cordova, USA","code":"cord"}},
    {"type":"Feature","geometry":{"type":"Point","coordinates":[-123.44000000,48.12500000]},"properties":{"title":"Port Angeles, USA","code":"pawa"}},
    {"type":"Feature","geometry":{"type":"Point","coordinates":[172.71666667,-43.60000000]},"properties":{"title":"Lyttelton, NZL","code":"lynz"}},
    {"type":"Feature","geometry":{"type":"Point","coordinates":[176.91666667,-39.48333333]},"properties":{"title":"Napier, NZL","code":"nanz"}},
    {"type":"Feature","geometry":{"type":"Point","coordinates":[170.65000000,-45.81666667]},"properties":{"title":"Port Chalmers, NZL","code":"pcnz"}},
    {"type":"Feature","geometry":{"type":"Point","coordinates":[-81.16666667,-5.08333333]},"properties":{"title":"Paita, PER","code":"pait"}},
    {"type":"Feature","geometry":{"type":"Point","coordinates":[-66.98500000,44.90333333]},"properties":{"title":"Eastport, USA","code":"epme"}},
    {"type":"Feature","geometry":{"type":"Point","coordinates":[-71.05166667,42.35500000]},"properties":{"title":"Boston, USA","code":"boma"}},
    {"type":"Feature","geometry":{"type":"Point","coordinates":[-70.67166667,41.52333333]},"properties":{"title":"Woods Hole, USA","code":"wood"}},
    {"type":"Feature","geometry":{"type":"Point","coordinates":[-70.09666667,41.28500000]},"properties":{"title":"Nantucket, USA","code":"nama"}},
    {"type":"Feature","geometry":{"type":"Point","coordinates":[-72.08666667,41.35500000]},"properties":{"title":"New London, USA","code":"nlct"}},
    {"type":"Feature","geometry":{"type":"Point","coordinates":[-74.01500000,40.70000000]},"properties":{"title":"New York, USA","code":"nyny"}},
    {"type":"Feature","geometry":{"type":"Point","coordinates":[-74.96000000,38.96833333]},"properties":{"title":"Cape May, USA","code":"cmnj"}},
    {"type":"Feature","geometry":{"type":"Point","coordinates":[-75.12000000,38.78166667]},"properties":{"title":"Lewes, USA","code":"lede"}},
    {"type":"Feature","geometry":{"type":"Point","coordinates":[-76.11333333,36.96666667]},"properties":{"title":"Chesapeake Bay, USA","code":"ches"}},
    {"type":"Feature","geometry":{"type":"Point","coordinates":[-77.95333333,34.22666667]},"properties":{"title":"Wilmington, USA","code":"winc"}},
    {"type":"Feature","geometry":{"type":"Point","coordinates":[-81.80666667,26.13000000]},"properties":{"title":"Naples, USA","code":"nafl"}},
    {"type":"Feature","geometry":{"type":"Point","coordinates":[-82.62666667,27.76000000]},"properties":{"title":"St. Petersburg, USA","code":"spfl"}},
    {"type":"Feature","geometry":{"type":"Point","coordinates":[-84.98166667,29.72666667]},"properties":{"title":"Apalachicola, USA","code":"apfl"}},
    {"type":"Feature","geometry":{"type":"Point","coordinates":[-89.95666667,29.26333333]},"properties":{"title":"Grand Isle, USA","code":"gila"}},
    {"type":"Feature","geometry":{"type":"Point","coordinates":[-93.87000000,29.73000000]},"properties":{"title":"Sabine Pass, USA","code":"sptx"}},
    {"type":"Feature","geometry":{"type":"Point","coordinates":[-97.04666667,28.02166667]},"properties":{"title":"Rockport, USA","code":"rotx"}},
    {"type":"Feature","geometry":{"type":"Point","coordinates":[-97.21666667,27.58000000]},"properties":{"title":"Corpus Cristi, USA","code":"cctx"}},
    {"type":"Feature","geometry":{"type":"Point","coordinates":[-97.21500000,26.06000000]},"properties":{"title":"Port Isabel, USA","code":"pitx"}},
    {"type":"Feature","geometry":{"type":"Point","coordinates":[-82.83166667,27.97666667]},"properties":{"title":"Clearwater Beach, USA","code":"cwfl"}},
    {"type":"Feature","geometry":{"type":"Point","coordinates":[-80.59333333,28.41500000]},"properties":{"title":"Port Canaveral, USA","code":"pcfl"}},
    {"type":"Feature","geometry":{"type":"Point","coordinates":[-104.85000000,70.98333333]},"properties":{"title":"Honningsvag, NOR","code":"honn"}},
    {"type":"Feature","geometry":{"type":"Point","coordinates":[5.11666667,61.93333333]},"properties":{"title":"Maloy, NOR","code":"malo"}},
    {"type":"Feature","geometry":{"type":"Point","coordinates":[115.11666667,78.93333333]},"properties":{"title":"Ny-Alesund, NOR","code":"nyal"}},
    {"type":"Feature","geometry":{"type":"Point","coordinates":[11.93333333,54.56666667]},"properties":{"title":"Gedser, DNK","code":"geds"}},
    {"type":"Feature","geometry":{"type":"Point","coordinates":[12.46666667,56.10000000]},"properties":{"title":"Hornbaek, DNK","code":"hord"}}]};