var gauges = {"type":"FeatureCollection","features":[
    {"type":"Feature","geometry":{"type":"Point","coordinates":[172.93000000,1.36166667]},"properties":{"title":"Betio, KIR","code":"tara","t":0.45,"a":2.52,"r":7.89}},
    {"type":"Feature","geometry":{"type":"Point","coordinates":[-90.28500000,-0.43500000]},"properties":{"title":"Baltra, ECU","code":"balt","t":-0.00,"a":4.15,"r":8.59}},
    {"type":"Feature","geometry":{"type":"Point","coordinates":[166.91000000,-0.53166667]},"properties":{"title":"Nauru, NRU","code":"nauu","t":0.64,"a":2.07,"r":9.77}},
    {"type":"Feature","geometry":{"type":"Point","coordinates":[171.37333333,7.10666667]},"properties":{"title":"Majuro, MHL","code":"maju","t":0.47,"a":1.88,"r":7.79}},
    {"type":"Feature","geometry":{"type":"Point","coordinates":[134.46333333,7.33000000]},"properties":{"title":"Malakal, PLW","code":"mala","t":0.79,"a":7.72,"r":13.84}},
    {"type":"Feature","geometry":{"type":"Point","coordinates":[138.12833333,9.50833333]},"properties":{"title":"Yap, FSM","code":"yapi","t":1.01,"a":6.57,"r":13.80}},
    {"type":"Feature","geometry":{"type":"Point","coordinates":[159.95666667,-9.42500000]},"properties":{"title":"Honiara, SLB","code":"solo","t":0.62,"a":6.06,"r":10.91}},
    {"type":"Feature","geometry":{"type":"Point","coordinates":[-157.47166667,1.98166667]},"properties":{"title":"Christmas Island, KIR","code":"xmas","t":0.21,"a":4.04,"r":9.64}},
    {"type":"Feature","geometry":{"type":"Point","coordinates":[-149.56666667,-17.52500000]},"properties":{"title":"Papeete, PYF","code":"pape","t":0.16,"a":2.31,"r":5.13}},
    {"type":"Feature","geometry":{"type":"Point","coordinates":[-134.95333333,-23.12500000]},"properties":{"title":"Rikitea, PYF","code":"riki","t":0.22,"a":3.42,"r":6.56}},
    {"type":"Feature","geometry":{"type":"Point","coordinates":[178.42666667,-18.13166667]},"properties":{"title":"Suva, FJI","code":"viti","t":1.09,"a":3.61,"r":8.47}},
    {"type":"Feature","geometry":{"type":"Point","coordinates":[166.41666667,-22.24166667]},"properties":{"title":"Noumea, NCL","code":"numb","t":0.24,"a":4.68,"r":7.75}},
    {"type":"Feature","geometry":{"type":"Point","coordinates":[-78.83333333,-33.62166667]},"properties":{"title":"Juan Fernandez, CHL","code":"juan","t":0.34,"a":5.71,"r":8.71}},
    {"type":"Feature","geometry":{"type":"Point","coordinates":[-109.44833333,-27.15000000]},"properties":{"title":"Easter Island, CHL","code":"east","t":0.13,"a":3.35,"r":8.51}},
    {"type":"Feature","geometry":{"type":"Point","coordinates":[-159.77500000,-21.20666667]},"properties":{"title":"Rarotonga, COK","code":"raro","t":0.46,"a":2.46,"r":7.51}},
    {"type":"Feature","geometry":{"type":"Point","coordinates":[-158.05333333,-8.97666667]},"properties":{"title":"Penrhyn, COK","code":"penr","t":0.20,"a":4.01,"r":7.77}},
    {"type":"Feature","geometry":{"type":"Point","coordinates":[179.19500000,-8.52500000]},"properties":{"title":"Funafuti, TUV","code":"funa","t":0.43,"a":5.24,"r":9.36}},
    {"type":"Feature","geometry":{"type":"Point","coordinates":[145.74166667,15.22666667]},"properties":{"title":"Saipan, MNP","code":"saip","t":0.56,"a":6.30,"r":9.51}},
    {"type":"Feature","geometry":{"type":"Point","coordinates":[154.77666667,1.09833333]},"properties":{"title":"Kapingamarangi, FSM","code":"kapi","t":0.65,"a":3.30,"r":9.33}},
    {"type":"Feature","geometry":{"type":"Point","coordinates":[-90.31166667,-0.75333333]},"properties":{"title":"Santa Cruz, ECU","code":"sant","t":0.06,"a":4.00,"r":8.47}},
    {"type":"Feature","geometry":{"type":"Point","coordinates":[-109.90833333,22.88000000]},"properties":{"title":"Cabo San Lucas, MEX","code":"cslu","t":0.19,"a":10.98,"r":10.03}},
    {"type":"Feature","geometry":{"type":"Point","coordinates":[-80.13333333,-26.28333333]},"properties":{"title":"San Felix, CHL","code":"sanf","t":-0.28,"a":1.37,"r":8.51}},
    {"type":"Feature","geometry":{"type":"Point","coordinates":[-175.16666667,-21.13333333]},"properties":{"title":"Nukualofa, TON","code":"nkfa","t":0.76,"a":4.92,"r":8.72}},
    {"type":"Feature","geometry":{"type":"Point","coordinates":[-152.51166667,57.73166667]},"properties":{"title":"Kodiak , USA","code":"kodi","t":-0.98,"a":8.05,"r":15.54}},
    {"type":"Feature","geometry":{"type":"Point","coordinates":[-176.63500000,51.85833333]},"properties":{"title":"Adak, USA","code":"adak","t":-0.41,"a":6.58,"r":14.14}},
    {"type":"Feature","geometry":{"type":"Point","coordinates":[-166.53833333,53.88000000]},"properties":{"title":"Dutch Harbor, USA","code":"dutc","t":-0.23,"a":8.69,"r":15.48}},
    {"type":"Feature","geometry":{"type":"Point","coordinates":[168.30000000,-17.76666667]},"properties":{"title":"Port Vila, VUT","code":"vanu","t":0.29,"a":4.03,"r":7.18}},
    {"type":"Feature","geometry":{"type":"Point","coordinates":[142.18333333,27.10000000]},"properties":{"title":"Chichijima, JPN","code":"chij","t":0.05,"a":10.44,"r":12.00}},
    {"type":"Feature","geometry":{"type":"Point","coordinates":[-177.36666667,28.21666667]},"properties":{"title":"Midway Island, USA","code":"midx","t":0.49,"a":4.15,"r":9.47}},
    {"type":"Feature","geometry":{"type":"Point","coordinates":[166.61666667,19.28333333]},"properties":{"title":"Wake Island, USA","code":"wake","t":0.17,"a":4.18,"r":9.35}},
    {"type":"Feature","geometry":{"type":"Point","coordinates":[-169.51666667,16.75000000]},"properties":{"title":"Johnston Island, USA","code":"john","t":0.09,"a":5.66,"r":9.11}},
    {"type":"Feature","geometry":{"type":"Point","coordinates":[144.65000000,13.43333333]},"properties":{"title":"Guam, GUM","code":"guam","t":0.71,"a":6.80,"r":10.65}},
    {"type":"Feature","geometry":{"type":"Point","coordinates":[167.73333333,8.73333333]},"properties":{"title":"Kwajalein, MHL","code":"kwaj","t":0.78,"a":4.10,"r":8.93}},
    {"type":"Feature","geometry":{"type":"Point","coordinates":[-170.68333333,-14.28333333]},"properties":{"title":"Pago Pago, ASM","code":"pago","t":0.95,"a":0.70,"r":9.57}},
    {"type":"Feature","geometry":{"type":"Point","coordinates":[-157.86666667,21.30666667]},"properties":{"title":"Honolulu, USA","code":"hono","t":0.02,"a":4.38,"r":5.90}},
    {"type":"Feature","geometry":{"type":"Point","coordinates":[-159.35000000,21.96666667]},"properties":{"title":"Nawiliwili, USA","code":"nawi","t":0.13,"a":5.02,"r":6.82}},
    {"type":"Feature","geometry":{"type":"Point","coordinates":[-156.46666667,20.90000000]},"properties":{"title":"Kahului, USA","code":"kahu","t":0.04,"a":4.10,"r":5.90}},
    {"type":"Feature","geometry":{"type":"Point","coordinates":[-155.06666667,19.73333333]},"properties":{"title":"Hilo, USA","code":"hilo","t":0.09,"a":3.97,"r":6.52}},
    {"type":"Feature","geometry":{"type":"Point","coordinates":[-157.80000000,21.43333333]},"properties":{"title":"Mokuoloe, USA","code":"moku","t":0.05,"a":4.23,"r":6.10}},
    {"type":"Feature","geometry":{"type":"Point","coordinates":[174.78333333,-41.28333333]},"properties":{"title":"Wellington, NZL","code":"wigt","t":0.51,"a":2.55,"r":10.35}},
    {"type":"Feature","geometry":{"type":"Point","coordinates":[-70.40000000,-23.65000000]},"properties":{"title":"Antofagasta, CHL","code":"anto","t":-0.03,"a":3.69,"r":6.76}},
    {"type":"Feature","geometry":{"type":"Point","coordinates":[-71.63333333,-33.03333333]},"properties":{"title":"Valparaiso, CHL","code":"valp","t":-0.08,"a":2.66,"r":7.31}},
    {"type":"Feature","geometry":{"type":"Point","coordinates":[-70.83333333,-27.06666667]},"properties":{"title":"Caldera, CHL","code":"cald","t":-0.55,"a":3.55,"r":7.49}},
    {"type":"Feature","geometry":{"type":"Point","coordinates":[-80.91666667,-2.20000000]},"properties":{"title":"La Libertad, ECU","code":"lali","t":0.25,"a":2.20,"r":8.62}},
    {"type":"Feature","geometry":{"type":"Point","coordinates":[-77.15000000,-12.05000000]},"properties":{"title":"Callao, PER","code":"call","t":-0.07,"a":4.65,"r":8.19}},
    {"type":"Feature","geometry":{"type":"Point","coordinates":[-72.10833333,-17.00166667]},"properties":{"title":"Matarani, PER","code":"mata","t":0.56,"a":3.92,"r":9.36}},
    {"type":"Feature","geometry":{"type":"Point","coordinates":[57.49500000,-20.15500000]},"properties":{"title":"Port Louis, MDV","code":"ptlu","t":0.57,"a":8.18,"r":9.78}},
    {"type":"Feature","geometry":{"type":"Point","coordinates":[63.41833333,-19.66833333]},"properties":{"title":"Rodrigues, MUS","code":"rodr","t":0.77,"a":7.60,"r":11.30}},
    {"type":"Feature","geometry":{"type":"Point","coordinates":[73.53333333,4.18333333]},"properties":{"title":"Hulhule, MDV","code":"male","t":0.43,"a":3.44,"r":6.00}},
    {"type":"Feature","geometry":{"type":"Point","coordinates":[73.15166667,-0.68666667]},"properties":{"title":"Gan, MDV","code":"ganm","t":0.30,"a":3.42,"r":5.49}},
    {"type":"Feature","geometry":{"type":"Point","coordinates":[54.00666667,16.93500000]},"properties":{"title":"Salalah, OMN","code":"sala","t":0.15,"a":8.34,"r":8.27}},
    {"type":"Feature","geometry":{"type":"Point","coordinates":[55.52833333,-4.67166667]},"properties":{"title":"Pointe La  Rue, SYC","code":"plru","t":0.46,"a":3.21,"r":9.16}},
    {"type":"Feature","geometry":{"type":"Point","coordinates":[39.60000000,-69.00000000]},"properties":{"title":"Syowa, JPN","code":"syow","t":1.04,"a":7.32,"r":12.96}},
    {"type":"Feature","geometry":{"type":"Point","coordinates":[133.64000000,-32.15000000]},"properties":{"title":"Thevenard, AUS","code":"thev","t":0.44,"a":8.40,"r":19.10}},
    {"type":"Feature","geometry":{"type":"Point","coordinates":[141.61333333,-38.34333333]},"properties":{"title":"Portland, AUS","code":"poau","t":0.38,"a":6.99,"r":12.95}},
    {"type":"Feature","geometry":{"type":"Point","coordinates":[99.76500000,6.43166667]},"properties":{"title":"Langkawi, MYS","code":"lank","t":0.35,"a":8.57,"r":11.79}},
    {"type":"Feature","geometry":{"type":"Point","coordinates":[98.42500000,7.83166667]},"properties":{"title":"Ko Taphao Noi, THA","code":"kota","t":0.75,"a":6.93,"r":13.15}},
    {"type":"Feature","geometry":{"type":"Point","coordinates":[40.90333333,-2.27166667]},"properties":{"title":"Lamu, KEN","code":"lamu","t":0.34,"a":3.74,"r":6.47}},
    {"type":"Feature","geometry":{"type":"Point","coordinates":[39.19000000,-6.15500000]},"properties":{"title":"Zanzibar, TZA","code":"zanz","t":0.41,"a":1.75,"r":5.95}},
    {"type":"Feature","geometry":{"type":"Point","coordinates":[122.21666667,-18.00000000]},"properties":{"title":"Broome, AUS","code":"brom","t":0.77,"a":10.61,"r":12.44}},
    {"type":"Feature","geometry":{"type":"Point","coordinates":[113.61666667,-24.88333333]},"properties":{"title":"Carnarvon, AUS","code":"carn","t":0.80,"a":11.86,"r":15.43}},
    {"type":"Feature","geometry":{"type":"Point","coordinates":[130.85000000,-12.46666667]},"properties":{"title":"Darwin, AUS","code":"darw","t":0.74,"a":13.02,"r":13.15}},
    {"type":"Feature","geometry":{"type":"Point","coordinates":[118.56666667,-20.31666667]},"properties":{"title":"Port Hedland, AUS","code":"pohe","t":0.92,"a":11.07,"r":13.15}},
    {"type":"Feature","geometry":{"type":"Point","coordinates":[96.90000000,-12.11666667]},"properties":{"title":"Cocos Island, AUS","code":"cocb","t":0.77,"a":10.75,"r":12.88}},
    {"type":"Feature","geometry":{"type":"Point","coordinates":[115.73333333,-32.05000000]},"properties":{"title":"Fremantle, AUS","code":"frem","t":0.71,"a":10.07,"r":16.17}},
    {"type":"Feature","geometry":{"type":"Point","coordinates":[121.90000000,-33.86666667]},"properties":{"title":"Esperance, AUS","code":"espe","t":0.59,"a":8.64,"r":14.94}},
    {"type":"Feature","geometry":{"type":"Point","coordinates":[70.22000000,-49.34500000]},"properties":{"title":"Kerguelen, FRA","code":"kerg","t":0.11,"a":1.06,"r":9.70}},
    {"type":"Feature","geometry":{"type":"Point","coordinates":[25.63000000,-33.96000000]},"properties":{"title":"Port Elizabeth, ZAF","code":"poel","t":0.12,"a":1.15,"r":11.55}},
    {"type":"Feature","geometry":{"type":"Point","coordinates":[-5.31666667,35.90000000]},"properties":{"title":"Ceuta, ESP","code":"ceut","t":0.18,"a":4.39,"r":8.02}},
    {"type":"Feature","geometry":{"type":"Point","coordinates":[-25.67333333,37.73500000]},"properties":{"title":"Ponta Delgada, PRT","code":"pdas","t":0.50,"a":4.47,"r":8.54}},
    {"type":"Feature","geometry":{"type":"Point","coordinates":[-15.40666667,28.14833333]},"properties":{"title":"Las Palmas, ESP","code":"lapa","t":0.40,"a":4.36,"r":6.21}},
    {"type":"Feature","geometry":{"type":"Point","coordinates":[-16.90666667,32.64000000]},"properties":{"title":"Funchal, PRT","code":"func","t":0.25,"a":5.37,"r":7.60}},
    {"type":"Feature","geometry":{"type":"Point","coordinates":[-81.80833333,24.55333333]},"properties":{"title":"Key West, USA","code":"kwfl","t":0.37,"a":9.09,"r":10.24}},
    {"type":"Feature","geometry":{"type":"Point","coordinates":[-66.11666667,18.46000000]},"properties":{"title":"San Juan, PRI","code":"sanj","t":0.32,"a":5.59,"r":6.55}},
    {"type":"Feature","geometry":{"type":"Point","coordinates":[-71.32666667,41.50500000]},"properties":{"title":"Newport, USA","code":"neri","t":0.39,"a":6.29,"r":11.90}},
    {"type":"Feature","geometry":{"type":"Point","coordinates":[-64.70333333,32.37333333]},"properties":{"title":"Bermuda, BMU","code":"bmda","t":0.37,"a":8.26,"r":12.31}},
    {"type":"Feature","geometry":{"type":"Point","coordinates":[-75.74000000,36.18333333]},"properties":{"title":"Duck Pier, USA","code":"dpnc","t":0.43,"a":7.07,"r":16.34}},
    {"type":"Feature","geometry":{"type":"Point","coordinates":[-79.93333333,32.78333333]},"properties":{"title":"Charleston, USA","code":"chsc","t":0.33,"a":9.61,"r":15.76}},
    {"type":"Feature","geometry":{"type":"Point","coordinates":[-74.41833333,39.35500000]},"properties":{"title":"Atlantic City, USA","code":"acnj","t":0.42,"a":8.00,"r":16.67}},
    {"type":"Feature","geometry":{"type":"Point","coordinates":[-79.90000000,9.35000000]},"properties":{"title":"Cristobal, PAN","code":"cris","t":-0.31,"a":2.66,"r":5.97}},
    {"type":"Feature","geometry":{"type":"Point","coordinates":[-94.20000000,58.78333333]},"properties":{"title":"Churchill, CAN","code":"chur","t":-0.40,"a":14.51,"r":18.89}},
    {"type":"Feature","geometry":{"type":"Point","coordinates":[-63.58333333,44.66666667]},"properties":{"title":"Halifax, CAN","code":"hali","t":0.46,"a":4.09,"r":11.00}},
    {"type":"Feature","geometry":{"type":"Point","coordinates":[-52.71666667,47.56666667]},"properties":{"title":"St. John, CAN","code":"stjo","t":0.21,"a":8.96,"r":14.77}},
    {"type":"Feature","geometry":{"type":"Point","coordinates":[-43.16500000,-22.89666667]},"properties":{"title":"Ilha Fiscal, BRA","code":"ilfi","t":-0.04,"a":5.40,"r":15.32}},
    {"type":"Feature","geometry":{"type":"Point","coordinates":[-57.93333333,-51.75000000]},"properties":{"title":"Port Stanley, GBR","code":"stan","t":0.34,"a":4.79,"r":11.96}},
    {"type":"Feature","geometry":{"type":"Point","coordinates":[-1.13833333,60.15333333]},"properties":{"title":"Lerwick, IRL","code":"lerw","t":0.30,"a":10.48,"r":15.16}},
    {"type":"Feature","geometry":{"type":"Point","coordinates":[-5.54166667,50.10166667]},"properties":{"title":"Newlyn, GBR","code":"newl","t":0.29,"a":6.32,"r":13.36}},
    {"type":"Feature","geometry":{"type":"Point","coordinates":[-6.38833333,58.20833333]},"properties":{"title":"Stornoway, GBR","code":"stor","t":0.41,"a":10.30,"r":17.35}},
    {"type":"Feature","geometry":{"type":"Point","coordinates":[-79.57333333,8.96166667]},"properties":{"title":"Balboa, PAN","code":"balb","t":-0.07,"a":12.24,"r":13.43}},
    {"type":"Feature","geometry":{"type":"Point","coordinates":[99.81666667,11.79500000]},"properties":{"title":"Ko Lak, THA","code":"kola","t":0.95,"a":21.24,"r":19.64}},
    {"type":"Feature","geometry":{"type":"Point","coordinates":[114.21666667,22.30000000]},"properties":{"title":"Quarry Bay, HKG","code":"quar","t":0.22,"a":11.64,"r":15.30}},
    {"type":"Feature","geometry":{"type":"Point","coordinates":[153.16666667,-27.36666667]},"properties":{"title":"Brisbane, AUS","code":"brisb","t":0.56,"a":4.68,"r":9.49}},
    {"type":"Feature","geometry":{"type":"Point","coordinates":[152.35000000,-24.83333333]},"properties":{"title":"Bundaberg, AUS","code":"bund","t":0.41,"a":7.15,"r":10.88}},
    {"type":"Feature","geometry":{"type":"Point","coordinates":[151.23333333,-33.85000000]},"properties":{"title":"Fort Denison, AUS","code":"fden","t":0.38,"a":4.32,"r":9.31}},
    {"type":"Feature","geometry":{"type":"Point","coordinates":[146.83333333,-19.25000000]},"properties":{"title":"Townsville, AUS","code":"twnv","t":0.43,"a":9.55,"r":12.07}},
    {"type":"Feature","geometry":{"type":"Point","coordinates":[147.93333333,-42.55000000]},"properties":{"title":"Spring Bay, AUS","code":"sprg","t":0.39,"a":3.47,"r":11.58}},
    {"type":"Feature","geometry":{"type":"Point","coordinates":[141.91666667,-10.60000000]},"properties":{"title":"Booby Island, AUS","code":"biau","t":0.59,"a":30.04,"r":25.66}},
    {"type":"Feature","geometry":{"type":"Point","coordinates":[120.28166667,22.61500000]},"properties":{"title":"Kaohsiung, TWN","code":"kaos","t":0.18,"a":9.89,"r":9.92}},
    {"type":"Feature","geometry":{"type":"Point","coordinates":[121.74500000,25.15666667]},"properties":{"title":"Keelung, TWN","code":"keel","t":0.00,"a":15.79,"r":13.73}},
    {"type":"Feature","geometry":{"type":"Point","coordinates":[129.85000000,29.83333333]},"properties":{"title":"Nakano Sima, JPN","code":"naka","t":0.34,"a":16.08,"r":15.23}},
    {"type":"Feature","geometry":{"type":"Point","coordinates":[144.28333333,44.01666667]},"properties":{"title":"Abashiri, JPN","code":"abas","t":0.14,"a":5.20,"r":9.99}},
    {"type":"Feature","geometry":{"type":"Point","coordinates":[132.06666667,34.90000000]},"properties":{"title":"Hamada, JPN","code":"hmda","t":0.49,"a":18.61,"r":15.72}},
    {"type":"Feature","geometry":{"type":"Point","coordinates":[137.21666667,36.76666667]},"properties":{"title":"Toyama, JPN","code":"toya","t":0.38,"a":16.02,"r":14.02}},
    {"type":"Feature","geometry":{"type":"Point","coordinates":[144.38333333,42.96666667]},"properties":{"title":"Kushiro, JPN","code":"kush","t":0.44,"a":2.41,"r":8.70}},
    {"type":"Feature","geometry":{"type":"Point","coordinates":[141.71666667,39.06666667]},"properties":{"title":"Ofunato, JPN","code":"ofun","t":0.00,"a":9.82,"r":10.60}},
    {"type":"Feature","geometry":{"type":"Point","coordinates":[139.83333333,34.91666667]},"properties":{"title":"Mera, JPN","code":"mera","t":0.60,"a":7.71,"r":10.80}},
    {"type":"Feature","geometry":{"type":"Point","coordinates":[135.78333333,33.46666667]},"properties":{"title":"Kushimoto, JPN","code":"kusm","t":0.64,"a":13.50,"r":14.13}},
    {"type":"Feature","geometry":{"type":"Point","coordinates":[131.41666667,31.56666667]},"properties":{"title":"Aburatsu, JPN","code":"abur","t":0.32,"a":13.77,"r":13.29}},
    {"type":"Feature","geometry":{"type":"Point","coordinates":[127.66666667,26.21666667]},"properties":{"title":"Naha, JPN","code":"naha","t":0.23,"a":14.83,"r":13.09}},
    {"type":"Feature","geometry":{"type":"Point","coordinates":[137.61666667,34.68333333]},"properties":{"title":"Maisaka, JPN","code":"mais","t":-0.11,"a":10.62,"r":12.82}},
    {"type":"Feature","geometry":{"type":"Point","coordinates":[129.49833333,28.37833333]},"properties":{"title":"Naze, JPN","code":"naze","t":0.15,"a":17.12,"r":14.29}},
    {"type":"Feature","geometry":{"type":"Point","coordinates":[141.68333333,45.40000000]},"properties":{"title":"Wakkanai, JPN","code":"waka","t":0.25,"a":9.46,"r":11.23}},
    {"type":"Feature","geometry":{"type":"Point","coordinates":[129.86666667,32.73333333]},"properties":{"title":"Nagasaki, JPN","code":"naga","t":0.42,"a":18.79,"r":15.48}},
    {"type":"Feature","geometry":{"type":"Point","coordinates":[130.99500000,30.73166667]},"properties":{"title":"Nisinoomote, JPN","code":"nish","t":0.36,"a":15.78,"r":14.05}},
    {"type":"Feature","geometry":{"type":"Point","coordinates":[140.73333333,41.78333333]},"properties":{"title":"Hakodate, JPN","code":"hako","t":-0.11,"a":7.61,"r":9.64}},
    {"type":"Feature","geometry":{"type":"Point","coordinates":[124.15000000,24.33333333]},"properties":{"title":"Ishigaki, JPN","code":"ishi","t":0.15,"a":15.14,"r":13.97}},
    {"type":"Feature","geometry":{"type":"Point","coordinates":[123.75000000,13.15000000]},"properties":{"title":"Legaspi, PHL","code":"lega","t":0.85,"a":4.25,"r":9.64}},
    {"type":"Feature","geometry":{"type":"Point","coordinates":[-104.33333333,19.05000000]},"properties":{"title":"Manzanillo, MEX","code":"manz","t":-0.91,"a":11.37,"r":13.24}},
    {"type":"Feature","geometry":{"type":"Point","coordinates":[159.06666667,-31.53333333]},"properties":{"title":"Lord Howe Island, AUS","code":"lhis","t":0.26,"a":8.38,"r":18.07}},
    {"type":"Feature","geometry":{"type":"Point","coordinates":[147.36666667,-2.03333333]},"properties":{"title":"Lombrum, PNG","code":"lomb","t":0.72,"a":2.60,"r":8.39}},
    {"type":"Feature","geometry":{"type":"Point","coordinates":[177.43333333,-17.60000000]},"properties":{"title":"Lautoka, FJI","code":"levu","t":0.50,"a":3.46,"r":6.88}},
    {"type":"Feature","geometry":{"type":"Point","coordinates":[-130.33333333,54.31666667]},"properties":{"title":"Prince Rupert, CAN","code":"prin","t":0.06,"a":10.69,"r":15.91}},
    {"type":"Feature","geometry":{"type":"Point","coordinates":[-125.91666667,49.15000000]},"properties":{"title":"Tofino, CAN","code":"tfbc","t":-0.10,"a":11.90,"r":16.20}},
    {"type":"Feature","geometry":{"type":"Point","coordinates":[-122.46500000,37.80666667]},"properties":{"title":"San Francisco, USA","code":"sfca","t":0.01,"a":3.71,"r":9.12}},
    {"type":"Feature","geometry":{"type":"Point","coordinates":[-155.83333333,20.03333333]},"properties":{"title":"Kawaihae, USA","code":"kawa","t":0.67,"a":3.96,"r":7.83}},
    {"type":"Feature","geometry":{"type":"Point","coordinates":[-117.25833333,32.86666667]},"properties":{"title":"La Jolla, USA","code":"lajo","t":0.27,"a":7.58,"r":8.68}},
    {"type":"Feature","geometry":{"type":"Point","coordinates":[-124.18333333,41.74500000]},"properties":{"title":"Crescent City, USA","code":"cres","t":-0.33,"a":7.05,"r":12.92}},
    {"type":"Feature","geometry":{"type":"Point","coordinates":[-124.61666667,48.36833333]},"properties":{"title":"Neah Bay, USA","code":"neba","t":-0.31,"a":12.58,"r":17.08}},
    {"type":"Feature","geometry":{"type":"Point","coordinates":[-135.34166667,57.05166667]},"properties":{"title":"Sitka, USA","code":"sitk","t":-0.41,"a":12.00,"r":16.40}},
    {"type":"Feature","geometry":{"type":"Point","coordinates":[-149.42666667,60.12000000]},"properties":{"title":"Seward, USA","code":"sewa","t":-0.48,"a":13.52,"r":18.46}},
    {"type":"Feature","geometry":{"type":"Point","coordinates":[-117.17333333,32.71500000]},"properties":{"title":"San Diego, USA","code":"sdca","t":0.25,"a":7.28,"r":8.36}},
    {"type":"Feature","geometry":{"type":"Point","coordinates":[-139.73500000,59.54666667]},"properties":{"title":"Yakutat, JPN","code":"yaku","t":-1.62,"a":12.07,"r":20.37}},
    {"type":"Feature","geometry":{"type":"Point","coordinates":[-131.62500000,55.33333333]},"properties":{"title":"Ketchikan, USA","code":"keal","t":-0.18,"a":10.96,"r":16.09}},
    {"type":"Feature","geometry":{"type":"Point","coordinates":[-160.50166667,55.33666667]},"properties":{"title":"Sand Point, USA","code":"sdpt","t":0.21,"a":14.09,"r":19.30}},
    {"type":"Feature","geometry":{"type":"Point","coordinates":[-148.52666667,70.40000000]},"properties":{"title":"Prudhoe Bay, USA","code":"pbal","t":0.15,"a":12.74,"r":19.19}},
    {"type":"Feature","geometry":{"type":"Point","coordinates":[-124.04333333,44.62500000]},"properties":{"title":"South Beach, USA","code":"sbea","t":-0.02,"a":11.92,"r":15.96}},
    {"type":"Feature","geometry":{"type":"Point","coordinates":[-165.43000000,64.50000000]},"properties":{"title":"Nome, USA","code":"nome","t":0.16,"a":12.12,"r":34.66}},
    {"type":"Feature","geometry":{"type":"Point","coordinates":[-72.96666667,-41.48333333]},"properties":{"title":"Puerto Madryn, ARG","code":"madr","t":0.31,"a":2.95,"r":11.20}},
    {"type":"Feature","geometry":{"type":"Point","coordinates":[103.85333333,1.26166667]},"properties":{"title":"Tanjong, MYS","code":"tanj","t":0.58,"a":13.29,"r":12.49}},
    {"type":"Feature","geometry":{"type":"Point","coordinates":[-64.26666667,-65.25000000]},"properties":{"title":"Faraday, GBR","code":"fara","t":-0.07,"a":1.95,"r":13.48}},
    {"type":"Feature","geometry":{"type":"Point","coordinates":[-80.90166667,32.03333333]},"properties":{"title":"Fort Pulaski, USA","code":"fpga","t":0.36,"a":10.08,"r":17.07}},
    {"type":"Feature","geometry":{"type":"Point","coordinates":[-80.16166667,25.73166667]},"properties":{"title":"Virginia Keys, USA","code":"virg","t":0.52,"a":8.36,"r":11.05}},
    {"type":"Feature","geometry":{"type":"Point","coordinates":[-87.21333333,30.40333333]},"properties":{"title":"Pensacola, USA","code":"pnfl","t":0.36,"a":10.99,"r":14.29}},
    {"type":"Feature","geometry":{"type":"Point","coordinates":[-94.79333333,29.31000000]},"properties":{"title":"Galveston, USA","code":"gptx","t":0.46,"a":8.06,"r":16.59}},
    {"type":"Feature","geometry":{"type":"Point","coordinates":[16.15000000,69.31666667]},"properties":{"title":"Andenes, NOR","code":"ande","t":0.15,"a":13.49,"r":17.34}},
    {"type":"Feature","geometry":{"type":"Point","coordinates":[11.25000000,64.86666667]},"properties":{"title":"Rorvik, NOR","code":"rorv","t":1.13,"a":13.62,"r":20.03}},
    {"type":"Feature","geometry":{"type":"Point","coordinates":[7.56666667,58.00000000]},"properties":{"title":"Tregde, NOR","code":"treg","t":0.09,"a":8.13,"r":13.38}},
    {"type":"Feature","geometry":{"type":"Point","coordinates":[31.10000000,70.33333333]},"properties":{"title":"Vardo, NOR","code":"vard","t":0.00,"a":11.62,"r":16.56}},
    {"type":"Feature","geometry":{"type":"Point","coordinates":[11.80000000,57.68333333]},"properties":{"title":"Gothenburg, SWE","code":"goto","t":0.13,"a":8.14,"r":18.80}},
    {"type":"Feature","geometry":{"type":"Point","coordinates":[-4.50000000,48.38333333]},"properties":{"title":"Brest, FRA","code":"bres","t":0.20,"a":5.74,"r":13.67}},
    {"type":"Feature","geometry":{"type":"Point","coordinates":[8.71666667,53.86666667]},"properties":{"title":"Cuxhaven, DEU","code":"cuxh","t":0.26,"a":8.49,"r":32.92}},
    {"type":"Feature","geometry":{"type":"Point","coordinates":[18.08333333,59.31666667]},"properties":{"title":"Stockholm, SWE","code":"sthm","t":-0.12,"a":7.04,"r":19.55}},
    {"type":"Feature","geometry":{"type":"Point","coordinates":[-8.40000000,43.36666667]},"properties":{"title":"La Coruna, ESP","code":"coru","t":0.33,"a":4.07,"r":12.08}},
    {"type":"Feature","geometry":{"type":"Point","coordinates":[176.18333333,-37.65000000]},"properties":{"title":"Tauranga, NZL","code":"taur","t":0.68,"a":4.23,"r":9.46}},
    {"type":"Feature","geometry":{"type":"Point","coordinates":[174.03333333,-39.05000000]},"properties":{"title":"Taranaki, NZL","code":"tarn","t":0.10,"a":3.50,"r":11.18}},
    {"type":"Feature","geometry":{"type":"Point","coordinates":[-80.71666667,-6.93333333]},"properties":{"title":"Lobos de Afuera, PER","code":"lape","t":-0.15,"a":3.98,"r":8.68}},
    {"type":"Feature","geometry":{"type":"Point","coordinates":[-77.10000000,3.90000000]},"properties":{"title":"Buenaventura, COL","code":"buve","t":0.30,"a":8.49,"r":11.29}},
    {"type":"Feature","geometry":{"type":"Point","coordinates":[-81.28166667,-4.58166667]},"properties":{"title":"Talara, PER","code":"tala","t":0.32,"a":5.38,"r":9.03}},
    {"type":"Feature","geometry":{"type":"Point","coordinates":[-79.64666667,0.99166667]},"properties":{"title":"Esmeraldas, ECU","code":"esec","t":0.15,"a":2.50,"r":10.16}},
    {"type":"Feature","geometry":{"type":"Point","coordinates":[138.46666667,-35.10833333]},"properties":{"title":"Port Stanvac, AUS","code":"psau","t":0.48,"a":9.52,"r":19.77}},
    {"type":"Feature","geometry":{"type":"Point","coordinates":[115.73833333,-31.82500000]},"properties":{"title":"Hillarys, AUS","code":"hill","t":0.95,"a":10.11,"r":16.56}},
    {"type":"Feature","geometry":{"type":"Point","coordinates":[101.35833333,3.05000000]},"properties":{"title":"Kelang, MYS","code":"kela","t":0.43,"a":4.64,"r":11.35}},
    {"type":"Feature","geometry":{"type":"Point","coordinates":[102.15333333,2.21500000]},"properties":{"title":"Keling, MYS","code":"keli","t":0.43,"a":4.08,"r":8.92}},
    {"type":"Feature","geometry":{"type":"Point","coordinates":[100.61333333,4.24000000]},"properties":{"title":"Lumut, MYS","code":"lumu","t":0.40,"a":5.86,"r":10.75}},
    {"type":"Feature","geometry":{"type":"Point","coordinates":[100.34666667,5.42166667]},"properties":{"title":"Penang, MYS","code":"pema","t":0.51,"a":7.20,"r":11.49}},
    {"type":"Feature","geometry":{"type":"Point","coordinates":[136.41666667,-13.86000000]},"properties":{"title":"Groote Eylandt, AUS","code":"groo","t":0.71,"a":28.34,"r":24.26}},
    {"type":"Feature","geometry":{"type":"Point","coordinates":[128.10166667,-15.45333333]},"properties":{"title":"Wyndham, AUS","code":"wynd","t":0.89,"a":16.63,"r":17.14}},
    {"type":"Feature","geometry":{"type":"Point","coordinates":[-16.24000000,28.47833333]},"properties":{"title":"Tenerife, ESP","code":"tene","t":0.46,"a":7.06,"r":7.85}},
    {"type":"Feature","geometry":{"type":"Point","coordinates":[-81.46666667,30.67166667]},"properties":{"title":"Fernandina Beach, USA","code":"fbfl","t":0.15,"a":10.36,"r":17.93}},
    {"type":"Feature","geometry":{"type":"Point","coordinates":[-67.04666667,17.97166667]},"properties":{"title":"Magueyes Island, USA","code":"mipr","t":0.33,"a":6.13,"r":6.36}},
    {"type":"Feature","geometry":{"type":"Point","coordinates":[-70.24666667,43.65666667]},"properties":{"title":"Portland, USA","code":"pome","t":0.42,"a":2.86,"r":11.17}},
    {"type":"Feature","geometry":{"type":"Point","coordinates":[-64.75333333,17.69666667]},"properties":{"title":"Lime Tree Bay, USA","code":"lime","t":0.32,"a":6.53,"r":6.80}},
    {"type":"Feature","geometry":{"type":"Point","coordinates":[-64.92000000,18.33500000]},"properties":{"title":"Charlotte Amalie, USA","code":"amal","t":0.32,"a":6.06,"r":6.47}},
    {"type":"Feature","geometry":{"type":"Point","coordinates":[-71.96000000,41.04833333]},"properties":{"title":"Montauk, USA","code":"mony","t":0.52,"a":5.46,"r":12.80}},
    {"type":"Feature","geometry":{"type":"Point","coordinates":[-78.73000000,1.81666667]},"properties":{"title":"Tumaco, COL","code":"tumc","t":0.23,"a":4.47,"r":10.77}},
    {"type":"Feature","geometry":{"type":"Point","coordinates":[103.18666667,5.26500000]},"properties":{"title":"Cendering, MYS","code":"cend","t":0.39,"a":19.71,"r":16.78}},
    {"type":"Feature","geometry":{"type":"Point","coordinates":[103.79166667,1.46166667]},"properties":{"title":"Johor Bahru, MYS","code":"joma","t":0.47,"a":14.28,"r":12.98}},
    {"type":"Feature","geometry":{"type":"Point","coordinates":[103.43000000,3.97500000]},"properties":{"title":"Kuantan, MYS","code":"kuan","t":0.48,"a":19.05,"r":16.06}},
    {"type":"Feature","geometry":{"type":"Point","coordinates":[104.14000000,2.80666667]},"properties":{"title":"Tioman, MYS","code":"tima","t":0.43,"a":17.21,"r":14.76}},
    {"type":"Feature","geometry":{"type":"Point","coordinates":[104.11500000,1.93166667]},"properties":{"title":"Sedili, MYS","code":"sedi","t":0.33,"a":17.96,"r":15.44}},
    {"type":"Feature","geometry":{"type":"Point","coordinates":[103.44333333,1.32500000]},"properties":{"title":"Kukup, MYS","code":"kuku","t":0.50,"a":5.01,"r":8.82}},
    {"type":"Feature","geometry":{"type":"Point","coordinates":[102.10666667,6.22666667]},"properties":{"title":"Getting, MYS","code":"geti","t":0.41,"a":22.84,"r":19.86}},
    {"type":"Feature","geometry":{"type":"Point","coordinates":[150.79000000,-23.16166667]},"properties":{"title":"Rosslyn Bay, AUS","code":"ross","t":0.47,"a":9.34,"r":10.98}},
    {"type":"Feature","geometry":{"type":"Point","coordinates":[147.33000000,-42.88666667]},"properties":{"title":"Hobart, AUS","code":"hoba","t":0.16,"a":4.31,"r":12.51}},
    {"type":"Feature","geometry":{"type":"Point","coordinates":[150.91166667,-34.47333333]},"properties":{"title":"Port Kembla, AUS","code":"poke","t":0.41,"a":4.26,"r":9.38}},
    {"type":"Feature","geometry":{"type":"Point","coordinates":[147.05833333,-19.27666667]},"properties":{"title":"Cape Ferguson, AUS","code":"ferg","t":0.45,"a":10.56,"r":12.24}},
    {"type":"Feature","geometry":{"type":"Point","coordinates":[145.91500000,-41.50000000]},"properties":{"title":"Burnie, AUS","code":"burn","t":0.35,"a":3.52,"r":9.33}},
    {"type":"Feature","geometry":{"type":"Point","coordinates":[139.48166667,34.06666667]},"properties":{"title":"Miyake Sima, JPN","code":"miya","t":3.03,"a":8.65,"r":33.92}},
    {"type":"Feature","geometry":{"type":"Point","coordinates":[120.96833333,14.58500000]},"properties":{"title":"Manila, PHL","code":"mani","t":1.27,"a":12.07,"r":14.24}},
    {"type":"Feature","geometry":{"type":"Point","coordinates":[141.53333333,40.53333333]},"properties":{"title":"Hachinohe, JPN","code":"hach","t":0.30,"a":10.76,"r":10.75}},
    {"type":"Feature","geometry":{"type":"Point","coordinates":[117.88333333,4.23333333]},"properties":{"title":"Tawau, MYS","code":"tama","t":0.67,"a":0.41,"r":7.27}},
    {"type":"Feature","geometry":{"type":"Point","coordinates":[116.06666667,5.98333333]},"properties":{"title":"Kota Kinabalu, MYS","code":"koki","t":0.55,"a":7.86,"r":10.00}},
    {"type":"Feature","geometry":{"type":"Point","coordinates":[113.06666667,3.21666667]},"properties":{"title":"Bintulu, MYS","code":"bint","t":0.31,"a":8.25,"r":8.83}},
    {"type":"Feature","geometry":{"type":"Point","coordinates":[118.06666667,5.81000000]},"properties":{"title":"Sandakan, MYS","code":"sdkn","t":0.56,"a":6.08,"r":8.07}},
    {"type":"Feature","geometry":{"type":"Point","coordinates":[174.50000000,-35.83333333]},"properties":{"title":"Marsden Point, NZL","code":"mpnz","t":0.37,"a":4.37,"r":9.96}},
    {"type":"Feature","geometry":{"type":"Point","coordinates":[-171.75000000,-13.81666667]},"properties":{"title":"Apia, WSM","code":"upol","t":0.80,"a":1.08,"r":8.71}},
    {"type":"Feature","geometry":{"type":"Point","coordinates":[-123.37000000,48.42166667]},"properties":{"title":"Victoria, CAN","code":"vibc","t":-0.00,"a":7.66,"r":13.54}},
    {"type":"Feature","geometry":{"type":"Point","coordinates":[-121.88833333,36.60500000]},"properties":{"title":"Monterey, USA","code":"mont","t":0.05,"a":5.59,"r":8.31}},
    {"type":"Feature","geometry":{"type":"Point","coordinates":[-151.72000000,59.44000000]},"properties":{"title":"Seldovia, USA","code":"seak","t":-0.86,"a":12.84,"r":18.63}},
    {"type":"Feature","geometry":{"type":"Point","coordinates":[-146.36166667,61.12500000]},"properties":{"title":"Valdez, USA","code":"vaka","t":-0.98,"a":11.66,"r":17.99}},
    {"type":"Feature","geometry":{"type":"Point","coordinates":[-123.96500000,46.70833333]},"properties":{"title":"Willapa Bay, USA","code":"wiwa","t":-0.34,"a":16.26,"r":21.08}},
    {"type":"Feature","geometry":{"type":"Point","coordinates":[-120.76000000,35.17666667]},"properties":{"title":"Port San Luis, USA","code":"pslu","t":0.08,"a":6.99,"r":8.42}},
    {"type":"Feature","geometry":{"type":"Point","coordinates":[-118.27166667,33.72000000]},"properties":{"title":"Los Angeles, USA","code":"losa","t":0.05,"a":7.02,"r":7.93}},
    {"type":"Feature","geometry":{"type":"Point","coordinates":[-123.76666667,46.20833333]},"properties":{"title":"Astoria, USA","code":"asto","t":-0.08,"a":11.06,"r":17.04}},
    {"type":"Feature","geometry":{"type":"Point","coordinates":[-123.70833333,38.91333333]},"properties":{"title":"Arena Cove, USA","code":"aren","t":0.03,"a":6.88,"r":11.20}},
    {"type":"Feature","geometry":{"type":"Point","coordinates":[-124.32166667,43.34500000]},"properties":{"title":"Charleston, USA","code":"char","t":-0.11,"a":9.93,"r":14.42}},
    {"type":"Feature","geometry":{"type":"Point","coordinates":[-124.21666667,40.76666667]},"properties":{"title":"Humboldt Bay, USA","code":"hbca","t":0.31,"a":6.30,"r":11.45}},
    {"type":"Feature","geometry":{"type":"Point","coordinates":[-118.50000000,34.00833333]},"properties":{"title":"Santa Monica, USA","code":"smca","t":0.09,"a":7.24,"r":8.00}},
    {"type":"Feature","geometry":{"type":"Point","coordinates":[-145.75333333,60.55833333]},"properties":{"title":"Cordova, USA","code":"cord","t":-0.08,"a":13.42,"r":17.54}},
    {"type":"Feature","geometry":{"type":"Point","coordinates":[-123.44000000,48.12500000]},"properties":{"title":"Port Angeles, USA","code":"pawa","t":-0.11,"a":9.68,"r":15.04}},
    {"type":"Feature","geometry":{"type":"Point","coordinates":[172.71666667,-43.60000000]},"properties":{"title":"Lyttelton, NZL","code":"lynz","t":0.62,"a":2.32,"r":11.49}},
    {"type":"Feature","geometry":{"type":"Point","coordinates":[176.91666667,-39.48333333]},"properties":{"title":"Napier, NZL","code":"nanz","t":0.38,"a":3.04,"r":9.27}},
    {"type":"Feature","geometry":{"type":"Point","coordinates":[170.65000000,-45.81666667]},"properties":{"title":"Port Chalmers, NZL","code":"pcnz","t":0.32,"a":1.87,"r":11.11}},
    {"type":"Feature","geometry":{"type":"Point","coordinates":[-81.16666667,-5.08333333]},"properties":{"title":"Paita, PER","code":"pait","t":0.36,"a":4.08,"r":9.21}},
    {"type":"Feature","geometry":{"type":"Point","coordinates":[-66.98500000,44.90333333]},"properties":{"title":"Eastport, USA","code":"epme","t":0.45,"a":0.63,"r":9.56}},
    {"type":"Feature","geometry":{"type":"Point","coordinates":[-71.05166667,42.35500000]},"properties":{"title":"Boston, USA","code":"boma","t":0.56,"a":3.86,"r":12.36}},
    {"type":"Feature","geometry":{"type":"Point","coordinates":[-70.67166667,41.52333333]},"properties":{"title":"Woods Hole, USA","code":"wood","t":0.52,"a":5.52,"r":11.56}},
    {"type":"Feature","geometry":{"type":"Point","coordinates":[-70.09666667,41.28500000]},"properties":{"title":"Nantucket, USA","code":"nama","t":0.53,"a":3.87,"r":11.61}},
    {"type":"Feature","geometry":{"type":"Point","coordinates":[-72.08666667,41.35500000]},"properties":{"title":"New London, USA","code":"nlct","t":0.47,"a":6.10,"r":13.03}},
    {"type":"Feature","geometry":{"type":"Point","coordinates":[-74.01500000,40.70000000]},"properties":{"title":"New York, USA","code":"nyny","t":0.46,"a":8.05,"r":16.14}},
    {"type":"Feature","geometry":{"type":"Point","coordinates":[-74.96000000,38.96833333]},"properties":{"title":"Cape May, USA","code":"cmnj","t":0.56,"a":6.62,"r":15.67}},
    {"type":"Feature","geometry":{"type":"Point","coordinates":[-75.12000000,38.78166667]},"properties":{"title":"Lewes, USA","code":"lede","t":0.52,"a":6.99,"r":17.04}},
    {"type":"Feature","geometry":{"type":"Point","coordinates":[-76.11333333,36.96666667]},"properties":{"title":"Chesapeake Bay, USA","code":"ches","t":0.56,"a":6.87,"r":16.99}},
    {"type":"Feature","geometry":{"type":"Point","coordinates":[-77.95333333,34.22666667]},"properties":{"title":"Wilmington, USA","code":"winc","t":0.15,"a":6.67,"r":13.04}},
    {"type":"Feature","geometry":{"type":"Point","coordinates":[-81.80666667,26.13000000]},"properties":{"title":"Naples, USA","code":"nafl","t":0.43,"a":9.66,"r":11.22}},
    {"type":"Feature","geometry":{"type":"Point","coordinates":[-82.62666667,27.76000000]},"properties":{"title":"St. Petersburg, USA","code":"spfl","t":0.42,"a":10.33,"r":13.37}},
    {"type":"Feature","geometry":{"type":"Point","coordinates":[-84.98166667,29.72666667]},"properties":{"title":"Apalachicola, USA","code":"apfl","t":0.43,"a":9.44,"r":14.88}},
    {"type":"Feature","geometry":{"type":"Point","coordinates":[-89.95666667,29.26333333]},"properties":{"title":"Grand Isle, USA","code":"gila","t":0.73,"a":9.82,"r":13.69}},
    {"type":"Feature","geometry":{"type":"Point","coordinates":[-93.87000000,29.73000000]},"properties":{"title":"Sabine Pass, USA","code":"sptx","t":0.41,"a":7.97,"r":16.60}},
    {"type":"Feature","geometry":{"type":"Point","coordinates":[-97.04666667,28.02166667]},"properties":{"title":"Rockport, USA","code":"rotx","t":0.71,"a":7.10,"r":14.85}},
    {"type":"Feature","geometry":{"type":"Point","coordinates":[-97.21666667,27.58000000]},"properties":{"title":"Corpus Cristi, USA","code":"cctx","t":0.34,"a":7.11,"r":14.42}},
    {"type":"Feature","geometry":{"type":"Point","coordinates":[-97.21500000,26.06000000]},"properties":{"title":"Port Isabel, USA","code":"pitx","t":0.47,"a":6.58,"r":12.84}},
    {"type":"Feature","geometry":{"type":"Point","coordinates":[-82.83166667,27.97666667]},"properties":{"title":"Clearwater Beach, USA","code":"cwfl","t":0.59,"a":10.48,"r":13.05}},
    {"type":"Feature","geometry":{"type":"Point","coordinates":[-80.59333333,28.41500000]},"properties":{"title":"Port Canaveral, USA","code":"pcfl","t":0.37,"a":9.99,"r":14.45}},
    {"type":"Feature","geometry":{"type":"Point","coordinates":[-104.85000000,70.98333333]},"properties":{"title":"Honningsvag, NOR","code":"honn","t":0.06,"a":12.79,"r":16.44}},
    {"type":"Feature","geometry":{"type":"Point","coordinates":[5.11666667,61.93333333]},"properties":{"title":"Maloy, NOR","code":"malo","t":0.25,"a":13.01,"r":17.21}},
    {"type":"Feature","geometry":{"type":"Point","coordinates":[115.11666667,78.93333333]},"properties":{"title":"Ny-Alesund, NOR","code":"nyal","t":-0.77,"a":8.68,"r":13.06}},
    {"type":"Feature","geometry":{"type":"Point","coordinates":[11.93333333,54.56666667]},"properties":{"title":"Gedser, DNK","code":"geds","t":0.45,"a":2.50,"r":19.68}},
    {"type":"Feature","geometry":{"type":"Point","coordinates":[12.46666667,56.10000000]},"properties":{"title":"Hornbaek, DNK","code":"hord","t":0.51,"a":6.77,"r":19.47}}]};