var gauges = {"type":"FeatureCollection","features":[
    {"type":"Feature","geometry":{"type":"Point","coordinates":[158.2000,6.9800]},"properties":{"title":"Pohnpei","code":"0001","t":0.63,"a":4.50,"r":8.58}},
    {"type":"Feature","geometry":{"type":"Point","coordinates":[172.9300,1.3700]},"properties":{"title":"Betio","code":"0002","t":0.44,"a":2.52,"r":7.44}},
    {"type":"Feature","geometry":{"type":"Point","coordinates":[-90.2800,-0.4300]},"properties":{"title":"Baltra","code":"0003","t":0.10,"a":2.21,"r":7.84}},
    {"type":"Feature","geometry":{"type":"Point","coordinates":[166.9000,-0.5300]},"properties":{"title":"Nauru","code":"0004","t":0.64,"a":1.76,"r":9.21}},
    {"type":"Feature","geometry":{"type":"Point","coordinates":[171.3700,7.1000]},"properties":{"title":"Majuro","code":"0005","t":0.33,"a":2.09,"r":7.69}},
    {"type":"Feature","geometry":{"type":"Point","coordinates":[134.4700,7.3300]},"properties":{"title":"Malakal","code":"0007","t":0.58,"a":7.09,"r":13.42}},
    {"type":"Feature","geometry":{"type":"Point","coordinates":[138.1300,9.5200]},"properties":{"title":"Yap","code":"0008","t":0.77,"a":5.90,"r":13.46}},
    {"type":"Feature","geometry":{"type":"Point","coordinates":[159.9500,-9.4300]},"properties":{"title":"Honiara","code":"0009","t":0.51,"a":5.14,"r":10.08}},
    {"type":"Feature","geometry":{"type":"Point","coordinates":[-157.4700,1.9800]},"properties":{"title":"Christmas","code":"0011","t":0.29,"a":4.81,"r":9.66}},
    {"type":"Feature","geometry":{"type":"Point","coordinates":[-171.7200,-2.8200]},"properties":{"title":"Kanton","code":"0013","t":0.16,"a":3.26,"r":7.00}},
    {"type":"Feature","geometry":{"type":"Point","coordinates":[-166.2800,23.8700]},"properties":{"title":"French Fr Shall","code":"0014","t":0.20,"a":5.09,"r":7.50}},
    {"type":"Feature","geometry":{"type":"Point","coordinates":[-149.5700,-17.5300]},"properties":{"title":"Papeete","code":"0015","t":0.22,"a":1.77,"r":4.82}},
    {"type":"Feature","geometry":{"type":"Point","coordinates":[-134.9500,-23.1300]},"properties":{"title":"Rikitea","code":"0016","t":0.32,"a":2.67,"r":5.84}},
    {"type":"Feature","geometry":{"type":"Point","coordinates":[-139.0300,-9.8200]},"properties":{"title":"Hiva Oa","code":"0017","t":3.62,"a":2.20,"r":6.11}},
    {"type":"Feature","geometry":{"type":"Point","coordinates":[178.4300,-18.1300]},"properties":{"title":"Suva","code":"0018","t":1.02,"a":1.19,"r":7.32}},
    {"type":"Feature","geometry":{"type":"Point","coordinates":[166.4300,-22.3000]},"properties":{"title":"Noumea","code":"0019","t":0.21,"a":0.86,"r":5.38}},
    {"type":"Feature","geometry":{"type":"Point","coordinates":[-78.8300,-33.6200]},"properties":{"title":"Juan Fernandez","code":"0021","t":0.45,"a":3.71,"r":7.47}},
    {"type":"Feature","geometry":{"type":"Point","coordinates":[-109.4500,-27.1500]},"properties":{"title":"Easter","code":"0022","t":0.25,"a":1.57,"r":6.77}},
    {"type":"Feature","geometry":{"type":"Point","coordinates":[-159.7800,-21.2000]},"properties":{"title":"Rarotonga","code":"0023","t":0.42,"a":0.52,"r":6.71}},
    {"type":"Feature","geometry":{"type":"Point","coordinates":[-158.0500,-8.9800]},"properties":{"title":"Penrhyn","code":"0024","t":0.24,"a":2.98,"r":6.84}},
    {"type":"Feature","geometry":{"type":"Point","coordinates":[179.2200,-8.5300]},"properties":{"title":"Funafuti","code":"0025","t":0.40,"a":4.46,"r":8.75}},
    {"type":"Feature","geometry":{"type":"Point","coordinates":[145.7500,15.2300]},"properties":{"title":"Saipan","code":"0028","t":0.49,"a":5.73,"r":8.90}},
    {"type":"Feature","geometry":{"type":"Point","coordinates":[154.7800,1.1000]},"properties":{"title":"Kapingamarangi","code":"0029","t":0.51,"a":2.61,"r":8.08}},
    {"type":"Feature","geometry":{"type":"Point","coordinates":[-90.3200,-0.7500]},"properties":{"title":"Santa Cruz","code":"0030","t":0.15,"a":2.28,"r":7.70}},
    {"type":"Feature","geometry":{"type":"Point","coordinates":[-140.0800,-8.9300]},"properties":{"title":"Nuku Hiva","code":"0031","t":0.36,"a":2.31,"r":5.86}},
    {"type":"Feature","geometry":{"type":"Point","coordinates":[125.1800,1.4300]},"properties":{"title":"Bitung","code":"0033","t":-0.65,"a":4.00,"r":6.93}},
    {"type":"Feature","geometry":{"type":"Point","coordinates":[-109.9200,22.8800]},"properties":{"title":"Cabo San Lucas","code":"0034","t":0.20,"a":9.80,"r":8.94}},
    {"type":"Feature","geometry":{"type":"Point","coordinates":[-80.1300,-26.2800]},"properties":{"title":"San Felix","code":"0035","t":-0.27,"a":1.36,"r":7.93}},
    {"type":"Feature","geometry":{"type":"Point","coordinates":[-175.1700,-21.1300]},"properties":{"title":"Nuku'alofa","code":"0038","t":0.70,"a":1.75,"r":7.48}},
    {"type":"Feature","geometry":{"type":"Point","coordinates":[-152.5200,57.7300]},"properties":{"title":"Kodiak Island","code":"0039","t":-0.93,"a":3.17,"r":8.11}},
    {"type":"Feature","geometry":{"type":"Point","coordinates":[-176.6300,51.8700]},"properties":{"title":"Adak Island","code":"0040","t":-0.26,"a":3.11,"r":4.73}},
    {"type":"Feature","geometry":{"type":"Point","coordinates":[-166.5000,53.9000]},"properties":{"title":"Dutch Harbor","code":"0041","t":-0.15,"a":1.86,"r":5.11}},
    {"type":"Feature","geometry":{"type":"Point","coordinates":[-162.1000,5.8700]},"properties":{"title":"Palmyra","code":"0043","t":-0.19,"a":7.89,"r":7.90}},
    {"type":"Feature","geometry":{"type":"Point","coordinates":[168.3000,-17.7700]},"properties":{"title":"Port Vila","code":"0046","t":0.22,"a":2.78,"r":6.19}},
    {"type":"Feature","geometry":{"type":"Point","coordinates":[142.1800,27.1000]},"properties":{"title":"Chichijima","code":"0047","t":0.04,"a":7.24,"r":9.90}},
    {"type":"Feature","geometry":{"type":"Point","coordinates":[153.9700,24.3000]},"properties":{"title":"Minamitorishima","code":"0049","t":-0.22,"a":17.74,"r":18.54}},
    {"type":"Feature","geometry":{"type":"Point","coordinates":[-177.3700,28.2200]},"properties":{"title":"Midway Island","code":"0050","t":0.47,"a":2.71,"r":7.19}},
    {"type":"Feature","geometry":{"type":"Point","coordinates":[166.6200,19.2800]},"properties":{"title":"Wake Island","code":"0051","t":0.14,"a":2.85,"r":8.63}},
    {"type":"Feature","geometry":{"type":"Point","coordinates":[-169.5200,16.7500]},"properties":{"title":"Johnston Island","code":"0052","t":0.10,"a":4.70,"r":8.38}},
    {"type":"Feature","geometry":{"type":"Point","coordinates":[144.6500,13.4300]},"properties":{"title":"Guam","code":"0053","t":0.56,"a":6.51,"r":10.49}},
    {"type":"Feature","geometry":{"type":"Point","coordinates":[167.7300,8.7300]},"properties":{"title":"Kwajalein","code":"0055","t":0.60,"a":4.90,"r":9.23}},
    {"type":"Feature","geometry":{"type":"Point","coordinates":[-170.6800,-14.2800]},"properties":{"title":"Pago Pago","code":"0056","t":0.98,"a":2.68,"r":9.77}},
    {"type":"Feature","geometry":{"type":"Point","coordinates":[-157.8700,21.3000]},"properties":{"title":"Honolulu","code":"0057","t":0.01,"a":3.35,"r":5.03}},
    {"type":"Feature","geometry":{"type":"Point","coordinates":[-159.3500,21.9700]},"properties":{"title":"Nawiliwili","code":"0058","t":0.13,"a":4.05,"r":5.88}},
    {"type":"Feature","geometry":{"type":"Point","coordinates":[-156.4700,20.9000]},"properties":{"title":"Kahului","code":"0059","t":0.04,"a":3.15,"r":4.86}},
    {"type":"Feature","geometry":{"type":"Point","coordinates":[-155.0700,19.7300]},"properties":{"title":"Hilo","code":"0060","t":0.08,"a":3.14,"r":5.57}},
    {"type":"Feature","geometry":{"type":"Point","coordinates":[-157.8000,21.4300]},"properties":{"title":"Mokuoloe","code":"0061","t":0.03,"a":3.18,"r":5.13}},
    {"type":"Feature","geometry":{"type":"Point","coordinates":[174.7800,-41.2800]},"properties":{"title":"Wellington","code":"0071","t":0.53,"a":4.25,"r":5.97}},
    {"type":"Feature","geometry":{"type":"Point","coordinates":[168.3300,-46.6000]},"properties":{"title":"Bluff","code":"0072","t":0.05,"a":3.92,"r":5.09}},
    {"type":"Feature","geometry":{"type":"Point","coordinates":[-176.5700,-43.9500]},"properties":{"title":"Chatham Island","code":"0079","t":1.12,"a":6.20,"r":7.22}},
    {"type":"Feature","geometry":{"type":"Point","coordinates":[-70.4000,-23.6500]},"properties":{"title":"Antofagasta","code":"0080","t":-0.02,"a":2.27,"r":5.79}},
    {"type":"Feature","geometry":{"type":"Point","coordinates":[-71.6300,-33.0300]},"properties":{"title":"Valparaiso","code":"0081","t":-0.00,"a":1.29,"r":6.20}},
    {"type":"Feature","geometry":{"type":"Point","coordinates":[-89.8300,13.5800]},"properties":{"title":"Acajutla","code":"0082","t":3.29,"a":6.51,"r":9.17}},
    {"type":"Feature","geometry":{"type":"Point","coordinates":[-70.3300,-18.4700]},"properties":{"title":"Arica","code":"0083","t":-0.10,"a":3.22,"r":7.12}},
    {"type":"Feature","geometry":{"type":"Point","coordinates":[-80.7200,-6.9300]},"properties":{"title":"Lobos De Afuera","code":"0084","t":3.09,"a":3.32,"r":4.41}},
    {"type":"Feature","geometry":{"type":"Point","coordinates":[-84.1700,9.4000]},"properties":{"title":"Quepos","code":"0087","t":-17.73,"a":5.55,"r":35.64}},
    {"type":"Feature","geometry":{"type":"Point","coordinates":[-70.8300,-27.0700]},"properties":{"title":"Caldera","code":"0088","t":-0.49,"a":2.25,"r":6.53}},
    {"type":"Feature","geometry":{"type":"Point","coordinates":[-111.0200,18.7300]},"properties":{"title":"Socorro","code":"0090","t":3.31,"a":1.97,"r":8.03}},
    {"type":"Feature","geometry":{"type":"Point","coordinates":[-80.9200,-2.2000]},"properties":{"title":"La Libertad","code":"0091","t":0.30,"a":1.09,"r":7.73}},
    {"type":"Feature","geometry":{"type":"Point","coordinates":[-81.2800,-4.5800]},"properties":{"title":"Talara","code":"0092","t":18.47,"a":9.56,"r":5.24}},
    {"type":"Feature","geometry":{"type":"Point","coordinates":[-77.1500,-12.0500]},"properties":{"title":"Callao","code":"0093","t":-0.02,"a":3.57,"r":7.20}},
    {"type":"Feature","geometry":{"type":"Point","coordinates":[-72.1200,-17.0000]},"properties":{"title":"Matarani","code":"0094","t":0.67,"a":2.19,"r":8.97}},
    {"type":"Feature","geometry":{"type":"Point","coordinates":[39.6500,-4.0700]},"properties":{"title":"Mombasa","code":"0101","t":0.41,"a":4.27,"r":6.40}},
    {"type":"Feature","geometry":{"type":"Point","coordinates":[57.5000,-20.1500]},"properties":{"title":"Port Louis","code":"0103","t":0.50,"a":3.47,"r":7.74}},
    {"type":"Feature","geometry":{"type":"Point","coordinates":[72.4000,-7.2800]},"properties":{"title":"Diego Garcia","code":"0104","t":0.93,"a":4.51,"r":9.23}},
    {"type":"Feature","geometry":{"type":"Point","coordinates":[63.4200,-19.6700]},"properties":{"title":"Rodrigues","code":"0105","t":0.74,"a":3.54,"r":9.78}},
    {"type":"Feature","geometry":{"type":"Point","coordinates":[100.3300,-1.0000]},"properties":{"title":"Padang","code":"0107","t":0.91,"a":1.18,"r":9.53}},
    {"type":"Feature","geometry":{"type":"Point","coordinates":[73.5300,4.1800]},"properties":{"title":"Hulhule","code":"0108","t":0.44,"a":2.83,"r":5.43}},
    {"type":"Feature","geometry":{"type":"Point","coordinates":[73.1500,-0.6800]},"properties":{"title":"Gan","code":"0109","t":0.30,"a":3.47,"r":5.08}},
    {"type":"Feature","geometry":{"type":"Point","coordinates":[58.5700,23.6300]},"properties":{"title":"Muscat","code":"0110","t":0.37,"a":5.91,"r":5.87}},
    {"type":"Feature","geometry":{"type":"Point","coordinates":[58.8700,20.6800]},"properties":{"title":"Masirah","code":"0113","t":0.25,"a":9.23,"r":8.18}},
    {"type":"Feature","geometry":{"type":"Point","coordinates":[54.0000,16.9300]},"properties":{"title":"Salalah","code":"0114","t":0.16,"a":14.73,"r":11.62}},
    {"type":"Feature","geometry":{"type":"Point","coordinates":[79.8700,6.9700]},"properties":{"title":"Colombo","code":"0115","t":1.13,"a":9.02,"r":8.62}},
    {"type":"Feature","geometry":{"type":"Point","coordinates":[73.1700,6.7700]},"properties":{"title":"Hanimaadhoo","code":"0117","t":0.65,"a":6.99,"r":6.87}},
    {"type":"Feature","geometry":{"type":"Point","coordinates":[97.6300,8.5700]},"properties":{"title":"Ko Miang","code":"0118","t":-26.84,"a":13.04,"r":10.20}},
    {"type":"Feature","geometry":{"type":"Point","coordinates":[43.1500,11.6000]},"properties":{"title":"Djibouti","code":"0119","t":0.56,"a":12.17,"r":9.86}},
    {"type":"Feature","geometry":{"type":"Point","coordinates":[55.5300,-4.6700]},"properties":{"title":"Point La Rue","code":"0121","t":0.46,"a":2.17,"r":8.73}},
    {"type":"Feature","geometry":{"type":"Point","coordinates":[98.7700,1.7500]},"properties":{"title":"Sibolga","code":"0122","t":-0.27,"a":0.78,"r":8.06}},
    {"type":"Feature","geometry":{"type":"Point","coordinates":[95.3300,5.8300]},"properties":{"title":"Sabang","code":"0123","t":0.31,"a":1.31,"r":8.09}},
    {"type":"Feature","geometry":{"type":"Point","coordinates":[91.8300,22.2300]},"properties":{"title":"Chittagong","code":"0124","t":-0.31,"a":28.23,"r":22.06}},
    {"type":"Feature","geometry":{"type":"Point","coordinates":[111.7300,-8.2800]},"properties":{"title":"Prigi","code":"0125","t":0.65,"a":17.96,"r":18.12}},
    {"type":"Feature","geometry":{"type":"Point","coordinates":[57.7700,25.6300]},"properties":{"title":"Jask","code":"0126","t":0.71,"a":3.73,"r":5.21}},
    {"type":"Feature","geometry":{"type":"Point","coordinates":[39.6000,-69.0000]},"properties":{"title":"Syowa","code":"0127","t":1.08,"a":7.59,"r":9.75}},
    {"type":"Feature","geometry":{"type":"Point","coordinates":[133.6300,-32.1500]},"properties":{"title":"Thevenard","code":"0128","t":0.45,"a":12.33,"r":12.32}},
    {"type":"Feature","geometry":{"type":"Point","coordinates":[141.6000,-38.3500]},"properties":{"title":"Portland","code":"0129","t":0.31,"a":9.65,"r":9.03}},
    {"type":"Feature","geometry":{"type":"Point","coordinates":[110.5300,-66.2800]},"properties":{"title":"Casey","code":"0130","t":0.68,"a":4.59,"r":6.51}},
    {"type":"Feature","geometry":{"type":"Point","coordinates":[128.2000,-3.7000]},"properties":{"title":"Ambon","code":"0133","t":-1.47,"a":10.25,"r":9.48}},
    {"type":"Feature","geometry":{"type":"Point","coordinates":[99.7500,6.4300]},"properties":{"title":"Langkawi","code":"0142","t":0.29,"a":7.97,"r":10.63}},
    {"type":"Feature","geometry":{"type":"Point","coordinates":[66.9700,24.8000]},"properties":{"title":"Karachi","code":"0147","t":0.44,"a":6.24,"r":7.66}},
    {"type":"Feature","geometry":{"type":"Point","coordinates":[98.4300,7.8300]},"properties":{"title":"Ko Taphao Noi","code":"0148","t":0.75,"a":6.47,"r":12.38}},
    {"type":"Feature","geometry":{"type":"Point","coordinates":[40.9000,-2.2700]},"properties":{"title":"Lamu","code":"0149","t":0.35,"a":5.83,"r":6.62}},
    {"type":"Feature","geometry":{"type":"Point","coordinates":[39.1800,-6.1500]},"properties":{"title":"Zanzibar","code":"0151","t":0.41,"a":2.78,"r":5.56}},
    {"type":"Feature","geometry":{"type":"Point","coordinates":[73.0500,8.1200]},"properties":{"title":"Minicoy","code":"0153","t":4.49,"a":8.09,"r":12.06}},
    {"type":"Feature","geometry":{"type":"Point","coordinates":[45.2500,-12.7800]},"properties":{"title":"Dzaoudzi","code":"0155","t":0.76,"a":3.29,"r":7.92}},
    {"type":"Feature","geometry":{"type":"Point","coordinates":[83.2800,17.6800]},"properties":{"title":"Vishakhapatnam","code":"0157","t":-6.41,"a":14.27,"r":17.54}},
    {"type":"Feature","geometry":{"type":"Point","coordinates":[109.0200,-7.7500]},"properties":{"title":"Cilacap","code":"0162","t":0.56,"a":15.29,"r":16.81}},
    {"type":"Feature","geometry":{"type":"Point","coordinates":[115.2200,-8.7500]},"properties":{"title":"Benoa","code":"0163","t":1.03,"a":15.27,"r":14.85}},
    {"type":"Feature","geometry":{"type":"Point","coordinates":[55.3000,-20.9200]},"properties":{"title":"Reunion","code":"0164","t":0.69,"a":1.37,"r":8.02}},
    {"type":"Feature","geometry":{"type":"Point","coordinates":[122.2200,-18.0000]},"properties":{"title":"Broome","code":"0166","t":0.66,"a":7.53,"r":10.09}},
    {"type":"Feature","geometry":{"type":"Point","coordinates":[113.6200,-24.8800]},"properties":{"title":"Carnarvon","code":"0167","t":0.76,"a":11.96,"r":13.15}},
    {"type":"Feature","geometry":{"type":"Point","coordinates":[130.8500,-12.4700]},"properties":{"title":"Darwin","code":"0168","t":0.62,"a":10.35,"r":11.03}},
    {"type":"Feature","geometry":{"type":"Point","coordinates":[118.5700,-20.3200]},"properties":{"title":"Port Hedland","code":"0169","t":0.88,"a":8.31,"r":10.96}},
    {"type":"Feature","geometry":{"type":"Point","coordinates":[105.6700,-10.4200]},"properties":{"title":"Christmas Island","code":"0170","t":2.20,"a":1.86,"r":9.84}},
    {"type":"Feature","geometry":{"type":"Point","coordinates":[96.9000,-12.1200]},"properties":{"title":"Cocos Island","code":"0171","t":0.73,"a":12.24,"r":13.29}},
    {"type":"Feature","geometry":{"type":"Point","coordinates":[44.9800,12.7800]},"properties":{"title":"Aden","code":"0172","t":0.76,"a":13.87,"r":10.64}},
    {"type":"Feature","geometry":{"type":"Point","coordinates":[77.9700,-68.4500]},"properties":{"title":"Davis","code":"0173","t":0.32,"a":4.73,"r":5.43}},
    {"type":"Feature","geometry":{"type":"Point","coordinates":[76.2700,9.9700]},"properties":{"title":"Cochin","code":"0174","t":3.92,"a":11.87,"r":12.27}},
    {"type":"Feature","geometry":{"type":"Point","coordinates":[115.7300,-32.0500]},"properties":{"title":"Fremantle","code":"0175","t":0.63,"a":13.12,"r":13.28}},
    {"type":"Feature","geometry":{"type":"Point","coordinates":[121.9000,-33.8700]},"properties":{"title":"Esperance","code":"0176","t":0.52,"a":11.31,"r":10.84}},
    {"type":"Feature","geometry":{"type":"Point","coordinates":[62.8700,-67.6000]},"properties":{"title":"Mawson","code":"0177","t":0.71,"a":6.40,"r":6.93}},
    {"type":"Feature","geometry":{"type":"Point","coordinates":[51.8700,-46.4300]},"properties":{"title":"Crozet Island","code":"0178","t":6.68,"a":1.16,"r":15.76}},
    {"type":"Feature","geometry":{"type":"Point","coordinates":[77.5300,-38.7200]},"properties":{"title":"St. Paul","code":"0179","t":0.99,"a":4.38,"r":7.76}},
    {"type":"Feature","geometry":{"type":"Point","coordinates":[70.2200,-49.3500]},"properties":{"title":"Kerguelen","code":"0180","t":0.08,"a":4.30,"r":6.03}},
    {"type":"Feature","geometry":{"type":"Point","coordinates":[31.0000,-29.8800]},"properties":{"title":"Durban","code":"0181","t":0.13,"a":3.02,"r":7.96}},
    {"type":"Feature","geometry":{"type":"Point","coordinates":[25.6300,-33.9700]},"properties":{"title":"Port Elizabeth","code":"0184","t":0.08,"a":4.14,"r":6.47}},
    {"type":"Feature","geometry":{"type":"Point","coordinates":[22.3300,-34.0700]},"properties":{"title":"Mossel Bay","code":"0185","t":1.10,"a":3.41,"r":9.44}},
    {"type":"Feature","geometry":{"type":"Point","coordinates":[23.0500,-34.0800]},"properties":{"title":"Knysna","code":"0186","t":0.16,"a":5.43,"r":7.54}},
    {"type":"Feature","geometry":{"type":"Point","coordinates":[27.9200,-33.0000]},"properties":{"title":"East London","code":"0187","t":0.16,"a":4.40,"r":10.47}},
    {"type":"Feature","geometry":{"type":"Point","coordinates":[32.1000,-28.7800]},"properties":{"title":"Richard's Bay","code":"0188","t":-0.04,"a":2.81,"r":9.16}},
    {"type":"Feature","geometry":{"type":"Point","coordinates":[140.0200,-66.6700]},"properties":{"title":"Dumont D'urville","code":"0189","t":2.19,"a":4.65,"r":5.29}},
    {"type":"Feature","geometry":{"type":"Point","coordinates":[40.4800,-12.9700]},"properties":{"title":"Pemba","code":"0192","t":-1.70,"a":0.92,"r":5.70}},
    {"type":"Feature","geometry":{"type":"Point","coordinates":[-5.3200,35.9000]},"properties":{"title":"Ceuta","code":"0207","t":0.15,"a":4.58,"r":4.74}},
    {"type":"Feature","geometry":{"type":"Point","coordinates":[-9.4200,38.7000]},"properties":{"title":"Cascais","code":"0209","t":-0.11,"a":4.11,"r":5.29}},
    {"type":"Feature","geometry":{"type":"Point","coordinates":[-31.1300,39.4500]},"properties":{"title":"Flores","code":"0210","t":0.28,"a":3.12,"r":5.79}},
    {"type":"Feature","geometry":{"type":"Point","coordinates":[-25.6800,37.7300]},"properties":{"title":"Ponta Delgada","code":"0211","t":0.52,"a":4.04,"r":6.01}},
    {"type":"Feature","geometry":{"type":"Point","coordinates":[-15.4200,28.1300]},"properties":{"title":"Las Palmas","code":"0217","t":0.38,"a":3.28,"r":4.18}},
    {"type":"Feature","geometry":{"type":"Point","coordinates":[-16.9000,32.6300]},"properties":{"title":"Funchal","code":"0218","t":0.18,"a":4.96,"r":5.12}},
    {"type":"Feature","geometry":{"type":"Point","coordinates":[14.5000,-22.9500]},"properties":{"title":"Walvis Bay","code":"0220","t":0.39,"a":2.43,"r":4.77}},
    {"type":"Feature","geometry":{"type":"Point","coordinates":[18.4300,-34.1800]},"properties":{"title":"Simon's Bay","code":"0221","t":0.38,"a":1.56,"r":4.76}},
    {"type":"Feature","geometry":{"type":"Point","coordinates":[-17.4300,14.6700]},"properties":{"title":"Dakar","code":"0223","t":0.08,"a":9.93,"r":8.12}},
    {"type":"Feature","geometry":{"type":"Point","coordinates":[6.7500,0.3500]},"properties":{"title":"Sao Tome","code":"0225","t":0.20,"a":6.23,"r":8.17}},
    {"type":"Feature","geometry":{"type":"Point","coordinates":[-52.5800,5.2800]},"properties":{"title":"Iles Du Salut","code":"0227","t":1.43,"a":2.79,"r":5.74}},
    {"type":"Feature","geometry":{"type":"Point","coordinates":[-1.7500,4.8800]},"properties":{"title":"Takoradi","code":"0231","t":-0.60,"a":4.45,"r":5.49}},
    {"type":"Feature","geometry":{"type":"Point","coordinates":[3.4200,6.4200]},"properties":{"title":"Lagos","code":"0233","t":-33609.34,"a":7485.64,"r":21.38}},
    {"type":"Feature","geometry":{"type":"Point","coordinates":[11.8500,-4.8000]},"properties":{"title":"Pointe Noire","code":"0234","t":0.60,"a":6.56,"r":7.27}},
    {"type":"Feature","geometry":{"type":"Point","coordinates":[-22.9800,16.7500]},"properties":{"title":"Palmeira","code":"0235","t":0.34,"a":2.23,"r":3.67}},
    {"type":"Feature","geometry":{"type":"Point","coordinates":[-81.8200,24.5500]},"properties":{"title":"Key West","code":"0242","t":0.41,"a":8.01,"r":8.88}},
    {"type":"Feature","geometry":{"type":"Point","coordinates":[-66.1200,18.4700]},"properties":{"title":"San Juan","code":"0245","t":0.34,"a":4.53,"r":5.78}},
    {"type":"Feature","geometry":{"type":"Point","coordinates":[-71.3300,41.5000]},"properties":{"title":"Newport","code":"0253","t":0.37,"a":6.15,"r":7.78}},
    {"type":"Feature","geometry":{"type":"Point","coordinates":[-79.0000,26.7200]},"properties":{"title":"Settlement Point","code":"0257","t":0.59,"a":7.63,"r":7.40}},
    {"type":"Feature","geometry":{"type":"Point","coordinates":[-64.7000,32.3700]},"properties":{"title":"Bermuda","code":"0259","t":0.37,"a":7.94,"r":10.92}},
    {"type":"Feature","geometry":{"type":"Point","coordinates":[-75.7300,36.1800]},"properties":{"title":"Duck Pier","code":"0260","t":0.44,"a":6.75,"r":10.93}},
    {"type":"Feature","geometry":{"type":"Point","coordinates":[-79.9300,32.7800]},"properties":{"title":"Charleston","code":"0261","t":0.39,"a":9.09,"r":12.59}},
    {"type":"Feature","geometry":{"type":"Point","coordinates":[-74.4200,39.3500]},"properties":{"title":"Atlantic City","code":"0264","t":0.40,"a":7.39,"r":10.95}},
    {"type":"Feature","geometry":{"type":"Point","coordinates":[-79.9000,9.3500]},"properties":{"title":"Cristobal","code":"0266","t":-0.32,"a":2.59,"r":5.45}},
    {"type":"Feature","geometry":{"type":"Point","coordinates":[-83.0300,10.0000]},"properties":{"title":"Limon","code":"0268","t":1.68,"a":2.26,"r":4.91}},
    {"type":"Feature","geometry":{"type":"Point","coordinates":[-61.0700,14.6000]},"properties":{"title":"Fort De France","code":"0271","t":0.74,"a":6.60,"r":6.55}},
    {"type":"Feature","geometry":{"type":"Point","coordinates":[-59.1300,47.5700]},"properties":{"title":"Basques","code":"0273","t":0.34,"a":2.62,"r":7.44}},
    {"type":"Feature","geometry":{"type":"Point","coordinates":[-94.2000,58.7800]},"properties":{"title":"Churchill","code":"0274","t":-0.46,"a":10.75,"r":11.65}},
    {"type":"Feature","geometry":{"type":"Point","coordinates":[-63.5800,44.6700]},"properties":{"title":"Halifax","code":"0275","t":0.44,"a":4.31,"r":6.80}},
    {"type":"Feature","geometry":{"type":"Point","coordinates":[-52.7200,47.5700]},"properties":{"title":"St-john's","code":"0276","t":0.20,"a":7.06,"r":8.63}},
    {"type":"Feature","geometry":{"type":"Point","coordinates":[-43.1700,-22.9000]},"properties":{"title":"Ilha Fiscal","code":"0280","t":-0.06,"a":7.19,"r":11.11}},
    {"type":"Feature","geometry":{"type":"Point","coordinates":[-47.9300,-25.0200]},"properties":{"title":"Cananeia","code":"0281","t":0.77,"a":6.84,"r":10.33}},
    {"type":"Feature","geometry":{"type":"Point","coordinates":[-38.4700,-3.7200]},"properties":{"title":"Fortaleza","code":"0283","t":0.35,"a":2.38,"r":2.74}},
    {"type":"Feature","geometry":{"type":"Point","coordinates":[-65.9200,-47.7500]},"properties":{"title":"Puerto Doseado","code":"0286","t":0.43,"a":4.74,"r":6.51}},
    {"type":"Feature","geometry":{"type":"Point","coordinates":[-21.9300,64.1500]},"properties":{"title":"Reykjavik","code":"0288","t":-0.29,"a":5.24,"r":5.97}},
    {"type":"Feature","geometry":{"type":"Point","coordinates":[-5.3500,36.1200]},"properties":{"title":"Gibraltar","code":"0289","t":0.72,"a":5.84,"r":6.69}},
    {"type":"Feature","geometry":{"type":"Point","coordinates":[-57.9300,-51.7500]},"properties":{"title":"Port Stanley","code":"0290","t":0.31,"a":3.48,"r":5.65}},
    {"type":"Feature","geometry":{"type":"Point","coordinates":[-14.4200,-7.9200]},"properties":{"title":"Ascension","code":"0291","t":0.16,"a":3.51,"r":4.10}},
    {"type":"Feature","geometry":{"type":"Point","coordinates":[-5.7000,-15.9700]},"properties":{"title":"St. Helena","code":"0292","t":-0.87,"a":3.30,"r":5.07}},
    {"type":"Feature","geometry":{"type":"Point","coordinates":[-1.1300,60.1500]},"properties":{"title":"Lerwick","code":"0293","t":0.30,"a":6.96,"r":7.58}},
    {"type":"Feature","geometry":{"type":"Point","coordinates":[-5.5500,50.1000]},"properties":{"title":"Newlyn","code":"0294","t":0.30,"a":5.09,"r":6.54}},
    {"type":"Feature","geometry":{"type":"Point","coordinates":[-6.3800,58.2200]},"properties":{"title":"Stornoway","code":"0295","t":0.41,"a":6.90,"r":8.36}},
    {"type":"Feature","geometry":{"type":"Point","coordinates":[-46.0300,60.7200]},"properties":{"title":"Qaqortoq","code":"0299","t":-2.74,"a":10.24,"r":14.98}},
    {"type":"Feature","geometry":{"type":"Point","coordinates":[-79.5700,8.9700]},"properties":{"title":"Balboa","code":"0302","t":-0.08,"a":12.01,"r":12.61}},
    {"type":"Feature","geometry":{"type":"Point","coordinates":[-99.9200,16.8300]},"properties":{"title":"Acapulco","code":"0316","t":1.92,"a":8.20,"r":10.13}},
    {"type":"Feature","geometry":{"type":"Point","coordinates":[-116.6300,31.8500]},"properties":{"title":"Ensenada","code":"0317","t":-1.56,"a":6.48,"r":6.18}},
    {"type":"Feature","geometry":{"type":"Point","coordinates":[99.8200,11.8000]},"properties":{"title":"Ko Lak","code":"0328","t":0.91,"a":23.75,"r":19.57}},
    {"type":"Feature","geometry":{"type":"Point","coordinates":[114.2200,22.3000]},"properties":{"title":"Quarry Bay","code":"0329","t":0.18,"a":16.21,"r":15.31}},
    {"type":"Feature","geometry":{"type":"Point","coordinates":[153.1700,-27.3700]},"properties":{"title":"Brisbane","code":"0331","t":0.52,"a":5.61,"r":7.98}},
    {"type":"Feature","geometry":{"type":"Point","coordinates":[152.3500,-24.8300]},"properties":{"title":"Bundaberg","code":"0332","t":0.20,"a":5.62,"r":9.58}},
    {"type":"Feature","geometry":{"type":"Point","coordinates":[151.2300,-33.8500]},"properties":{"title":"Fort Denison","code":"0333","t":0.35,"a":7.35,"r":7.76}},
    {"type":"Feature","geometry":{"type":"Point","coordinates":[146.8300,-19.2500]},"properties":{"title":"Townsville","code":"0334","t":0.24,"a":7.83,"r":10.62}},
    {"type":"Feature","geometry":{"type":"Point","coordinates":[147.9300,-42.5500]},"properties":{"title":"Spring Bay","code":"0335","t":0.34,"a":5.59,"r":5.92}},
    {"type":"Feature","geometry":{"type":"Point","coordinates":[141.9200,-10.6000]},"properties":{"title":"Booby Isl","code":"0336","t":0.47,"a":27.50,"r":22.64}},
    {"type":"Feature","geometry":{"type":"Point","coordinates":[120.2800,22.6200]},"properties":{"title":"Kaohsiung","code":"0340","t":0.14,"a":4.94,"r":6.82}},
    {"type":"Feature","geometry":{"type":"Point","coordinates":[121.7500,25.1500]},"properties":{"title":"Keelunng","code":"0341","t":-0.07,"a":7.73,"r":7.57}},
    {"type":"Feature","geometry":{"type":"Point","coordinates":[129.8500,29.8300]},"properties":{"title":"Nakano Sima","code":"0345","t":0.31,"a":10.84,"r":10.97}},
    {"type":"Feature","geometry":{"type":"Point","coordinates":[144.2800,44.0200]},"properties":{"title":"Abashiri","code":"0347","t":0.13,"a":6.82,"r":6.54}},
    {"type":"Feature","geometry":{"type":"Point","coordinates":[132.0700,34.9000]},"properties":{"title":"Hamada","code":"0348","t":0.45,"a":14.65,"r":11.89}},
    {"type":"Feature","geometry":{"type":"Point","coordinates":[137.2200,36.7700]},"properties":{"title":"Toyama","code":"0349","t":0.34,"a":14.25,"r":11.37}},
    {"type":"Feature","geometry":{"type":"Point","coordinates":[144.3800,42.9700]},"properties":{"title":"Kushiro","code":"0350","t":0.42,"a":3.88,"r":5.29}},
    {"type":"Feature","geometry":{"type":"Point","coordinates":[141.7200,39.0700]},"properties":{"title":"Ofunato","code":"0351","t":-0.11,"a":9.97,"r":8.88}},
    {"type":"Feature","geometry":{"type":"Point","coordinates":[139.8300,34.9200]},"properties":{"title":"Mera","code":"0352","t":0.57,"a":8.16,"r":9.12}},
    {"type":"Feature","geometry":{"type":"Point","coordinates":[135.7800,33.4700]},"properties":{"title":"Kushimoto","code":"0353","t":0.61,"a":10.93,"r":11.38}},
    {"type":"Feature","geometry":{"type":"Point","coordinates":[131.4200,31.5700]},"properties":{"title":"Aburatsu","code":"0354","t":0.30,"a":10.57,"r":10.16}},
    {"type":"Feature","geometry":{"type":"Point","coordinates":[127.6700,26.2200]},"properties":{"title":"Naha","code":"0355","t":0.21,"a":9.51,"r":9.35}},
    {"type":"Feature","geometry":{"type":"Point","coordinates":[137.6200,34.6800]},"properties":{"title":"Maisaka","code":"0356","t":-0.10,"a":8.55,"r":10.10}},
    {"type":"Feature","geometry":{"type":"Point","coordinates":[129.5000,28.3800]},"properties":{"title":"Naze","code":"0359","t":0.12,"a":11.32,"r":10.10}},
    {"type":"Feature","geometry":{"type":"Point","coordinates":[141.6800,45.4000]},"properties":{"title":"Wakkanai","code":"0360","t":0.22,"a":9.41,"r":7.79}},
    {"type":"Feature","geometry":{"type":"Point","coordinates":[129.8700,32.7300]},"properties":{"title":"Nagasaki","code":"0362","t":0.38,"a":13.89,"r":11.67}},
    {"type":"Feature","geometry":{"type":"Point","coordinates":[131.0000,30.7300]},"properties":{"title":"Nishinoomote","code":"0363","t":0.34,"a":11.71,"r":10.67}},
    {"type":"Feature","geometry":{"type":"Point","coordinates":[140.7300,41.7800]},"properties":{"title":"Hakodate","code":"0364","t":-0.15,"a":8.00,"r":6.80}},
    {"type":"Feature","geometry":{"type":"Point","coordinates":[124.1500,24.3300]},"properties":{"title":"Ishigaki","code":"0365","t":0.15,"a":8.71,"r":9.93}},
    {"type":"Feature","geometry":{"type":"Point","coordinates":[120.9700,14.5800]},"properties":{"title":"Manila","code":"0370","t":0.45,"a":8.75,"r":18.76}},
    {"type":"Feature","geometry":{"type":"Point","coordinates":[123.7500,13.1500]},"properties":{"title":"Legaspi","code":"0371","t":0.89,"a":2.60,"r":9.22}},
    {"type":"Feature","geometry":{"type":"Point","coordinates":[125.6300,7.0800]},"properties":{"title":"Davao","code":"0372","t":-0.16,"a":3.95,"r":8.26}},
    {"type":"Feature","geometry":{"type":"Point","coordinates":[109.2500,13.7700]},"properties":{"title":"Quinhon","code":"0381","t":-0.13,"a":17.40,"r":14.73}},
    {"type":"Feature","geometry":{"type":"Point","coordinates":[120.2800,14.8200]},"properties":{"title":"Subic Bay","code":"0382","t":-0.04,"a":7.06,"r":7.06}},
    {"type":"Feature","geometry":{"type":"Point","coordinates":[107.0700,10.3300]},"properties":{"title":"Vung Tau","code":"0383","t":0.11,"a":22.58,"r":17.70}},
    {"type":"Feature","geometry":{"type":"Point","coordinates":[-104.3300,19.0500]},"properties":{"title":"Manzanillo","code":"0395","t":-0.91,"a":10.55,"r":12.40}},
    {"type":"Feature","geometry":{"type":"Point","coordinates":[159.0700,-31.5300]},"properties":{"title":"Lord-howe","code":"0399","t":0.25,"a":8.14,"r":15.82}},
    {"type":"Feature","geometry":{"type":"Point","coordinates":[147.3700,-2.0300]},"properties":{"title":"Lombrum","code":"0400","t":0.56,"a":2.38,"r":7.57}},
    {"type":"Feature","geometry":{"type":"Point","coordinates":[177.4300,-17.6000]},"properties":{"title":"Lautoka","code":"0402","t":0.46,"a":1.58,"r":5.96}},
    {"type":"Feature","geometry":{"type":"Point","coordinates":[168.6200,-43.9800]},"properties":{"title":"Jackson","code":"0403","t":-0.06,"a":4.99,"r":6.79}},
    {"type":"Feature","geometry":{"type":"Point","coordinates":[105.6700,-6.4800]},"properties":{"title":"Tanjung Lesung","code":"0416","t":1.01,"a":6.72,"r":11.07}},
    {"type":"Feature","geometry":{"type":"Point","coordinates":[110.7800,-8.5000]},"properties":{"title":"Sadeng","code":"0417","t":-0.81,"a":16.25,"r":17.62}},
    {"type":"Feature","geometry":{"type":"Point","coordinates":[119.2300,-9.4000]},"properties":{"title":"Waikelo","code":"0418","t":-2.33,"a":9.32,"r":22.95}},
    {"type":"Feature","geometry":{"type":"Point","coordinates":[116.0700,-8.7300]},"properties":{"title":"Lambar","code":"0419","t":-0.19,"a":7.38,"r":7.10}},
    {"type":"Feature","geometry":{"type":"Point","coordinates":[131.2800,-7.9800]},"properties":{"title":"Maumlaki","code":"0420","t":-0.79,"a":7.93,"r":8.21}},
    {"type":"Feature","geometry":{"type":"Point","coordinates":[-130.3300,54.3200]},"properties":{"title":"Prince Rupert","code":"0540","t":0.10,"a":7.18,"r":8.29}},
    {"type":"Feature","geometry":{"type":"Point","coordinates":[-125.9200,49.1500]},"properties":{"title":"Tofino","code":"0542","t":-0.01,"a":10.81,"r":10.64}},
    {"type":"Feature","geometry":{"type":"Point","coordinates":[-158.1200,21.3200]},"properties":{"title":"Barbers Point","code":"0547","t":0.40,"a":4.08,"r":5.40}},
    {"type":"Feature","geometry":{"type":"Point","coordinates":[-157.0000,20.7800]},"properties":{"title":"Kaumalapau","code":"0548","t":0.08,"a":3.87,"r":4.79}},
    {"type":"Feature","geometry":{"type":"Point","coordinates":[-122.4700,37.8000]},"properties":{"title":"San Francisco","code":"0551","t":0.10,"a":5.00,"r":7.21}},
    {"type":"Feature","geometry":{"type":"Point","coordinates":[-155.8300,20.0300]},"properties":{"title":"Kawaihae","code":"0552","t":0.69,"a":3.22,"r":7.54}},
    {"type":"Feature","geometry":{"type":"Point","coordinates":[-117.2700,32.8700]},"properties":{"title":"La Jolla","code":"0554","t":0.36,"a":6.75,"r":7.80}},
    {"type":"Feature","geometry":{"type":"Point","coordinates":[-124.1800,41.7500]},"properties":{"title":"Crescent City","code":"0556","t":-0.23,"a":7.73,"r":9.01}},
    {"type":"Feature","geometry":{"type":"Point","coordinates":[-124.6200,48.3700]},"properties":{"title":"Neah Bay","code":"0558","t":-0.21,"a":11.65,"r":11.58}},
    {"type":"Feature","geometry":{"type":"Point","coordinates":[-135.3500,57.0500]},"properties":{"title":"Sitka","code":"0559","t":-0.38,"a":7.19,"r":8.18}},
    {"type":"Feature","geometry":{"type":"Point","coordinates":[-149.4300,60.1200]},"properties":{"title":"Seward","code":"0560","t":-0.43,"a":8.05,"r":9.09}},
    {"type":"Feature","geometry":{"type":"Point","coordinates":[-117.1700,32.7200]},"properties":{"title":"San Diego","code":"0569","t":0.34,"a":6.48,"r":7.50}},
    {"type":"Feature","geometry":{"type":"Point","coordinates":[-139.7300,59.5500]},"properties":{"title":"Yakutat Bay","code":"0570","t":-1.58,"a":7.24,"r":13.43}},
    {"type":"Feature","geometry":{"type":"Point","coordinates":[-131.6300,55.3300]},"properties":{"title":"Ketchikan","code":"0571","t":-0.14,"a":7.35,"r":8.24}},
    {"type":"Feature","geometry":{"type":"Point","coordinates":[-160.5000,55.3300]},"properties":{"title":"Sand Point","code":"0574","t":0.23,"a":7.02,"r":8.73}},
    {"type":"Feature","geometry":{"type":"Point","coordinates":[-148.5300,70.4000]},"properties":{"title":"Prudhoe Bay","code":"0579","t":0.16,"a":8.97,"r":13.80}},
    {"type":"Feature","geometry":{"type":"Point","coordinates":[-124.0500,44.6300]},"properties":{"title":"South Beach","code":"0592","t":0.09,"a":11.87,"r":11.41}},
    {"type":"Feature","geometry":{"type":"Point","coordinates":[-165.4300,64.5000]},"properties":{"title":"Nome,norton Sound","code":"0595","t":0.26,"a":12.31,"r":23.14}},
    {"type":"Feature","geometry":{"type":"Point","coordinates":[-68.3000,-54.8000]},"properties":{"title":"Ushuaia","code":"0600","t":0.08,"a":2.81,"r":7.35}},
    {"type":"Feature","geometry":{"type":"Point","coordinates":[-56.9800,-63.4000]},"properties":{"title":"Esperanza","code":"0601","t":-0.80,"a":2.38,"r":7.57}},
    {"type":"Feature","geometry":{"type":"Point","coordinates":[120.4800,18.0200]},"properties":{"title":"Currimao","code":"0654","t":-1.29,"a":10.01,"r":9.15}},
    {"type":"Feature","geometry":{"type":"Point","coordinates":[120.2000,13.8200]},"properties":{"title":"Lubang","code":"0655","t":-1.87,"a":6.58,"r":6.70}},
    {"type":"Feature","geometry":{"type":"Point","coordinates":[158.9700,-54.4800]},"properties":{"title":"Macquarie Is.","code":"0680","t":0.68,"a":1.51,"r":9.14}},
    {"type":"Feature","geometry":{"type":"Point","coordinates":[-72.9700,-41.4800]},"properties":{"title":"Puerto Montt","code":"0684","t":-2.99,"a":2.51,"r":8.13}},
    {"type":"Feature","geometry":{"type":"Point","coordinates":[103.8500,1.2700]},"properties":{"title":"Tanjong Pagar","code":"0699","t":0.43,"a":14.01,"r":11.85}},
    {"type":"Feature","geometry":{"type":"Point","coordinates":[-64.2700,-65.2500]},"properties":{"title":"Faraday","code":"0700","t":-0.14,"a":4.02,"r":6.07}},
    {"type":"Feature","geometry":{"type":"Point","coordinates":[16.8500,-29.2800]},"properties":{"title":"Port Nolloth","code":"0701","t":0.34,"a":1.23,"r":4.53}},
    {"type":"Feature","geometry":{"type":"Point","coordinates":[15.1700,-26.6300]},"properties":{"title":"Luderitz","code":"0702","t":0.28,"a":1.51,"r":6.41}},
    {"type":"Feature","geometry":{"type":"Point","coordinates":[17.9500,-33.0200]},"properties":{"title":"Saldahna Bay","code":"0703","t":0.17,"a":1.37,"r":4.35}},
    {"type":"Feature","geometry":{"type":"Point","coordinates":[18.4300,-34.1800]},"properties":{"title":"Cape Town","code":"0704","t":0.63,"a":1.95,"r":8.26}},
    {"type":"Feature","geometry":{"type":"Point","coordinates":[-38.5200,-12.9700]},"properties":{"title":"Salvador","code":"0708","t":0.30,"a":5.98,"r":5.48}},
    {"type":"Feature","geometry":{"type":"Point","coordinates":[-57.5300,-38.0300]},"properties":{"title":"Mar Del Plata","code":"0729","t":1.22,"a":6.19,"r":9.93}},
    {"type":"Feature","geometry":{"type":"Point","coordinates":[-65.0300,-42.7700]},"properties":{"title":"Puerto Madryn","code":"0731","t":0.92,"a":5.42,"r":8.26}},
    {"type":"Feature","geometry":{"type":"Point","coordinates":[-81.7000,12.5800]},"properties":{"title":"San Andres","code":"0737","t":1.64,"a":2.48,"r":6.74}},
    {"type":"Feature","geometry":{"type":"Point","coordinates":[-74.2300,11.2300]},"properties":{"title":"Santa Marta","code":"0738","t":0.02,"a":6.87,"r":7.53}},
    {"type":"Feature","geometry":{"type":"Point","coordinates":[-78.9500,9.5700]},"properties":{"title":"El Porvenir","code":"0739","t":1.45,"a":3.18,"r":4.26}},
    {"type":"Feature","geometry":{"type":"Point","coordinates":[-80.9000,32.0300]},"properties":{"title":"Fort Pulaski","code":"0752","t":0.41,"a":9.36,"r":13.33}},
    {"type":"Feature","geometry":{"type":"Point","coordinates":[-80.1700,25.7300]},"properties":{"title":"Virginia Key","code":"0755","t":0.55,"a":7.37,"r":9.49}},
    {"type":"Feature","geometry":{"type":"Point","coordinates":[-87.2200,30.4000]},"properties":{"title":"Pensacola","code":"0762","t":0.39,"a":8.87,"r":10.20}},
    {"type":"Feature","geometry":{"type":"Point","coordinates":[-94.7800,29.2800]},"properties":{"title":"Galveston(p.pier)","code":"0767","t":0.33,"a":7.77,"r":12.51}},
    {"type":"Feature","geometry":{"type":"Point","coordinates":[-94.8000,29.3200]},"properties":{"title":"Galveston(pier21)","code":"0775","t":0.55,"a":6.76,"r":12.60}},
    {"type":"Feature","geometry":{"type":"Point","coordinates":[-68.3800,18.5000]},"properties":{"title":"Punta Cana","code":"0776","t":2.34,"a":3.22,"r":5.47}},
    {"type":"Feature","geometry":{"type":"Point","coordinates":[-70.7000,19.8000]},"properties":{"title":"Puerto Plata","code":"0777","t":2.51,"a":4.19,"r":6.24}},
    {"type":"Feature","geometry":{"type":"Point","coordinates":[-61.4000,15.3000]},"properties":{"title":"Roseau","code":"0786","t":1.08,"a":7.09,"r":6.15}},
    {"type":"Feature","geometry":{"type":"Point","coordinates":[-61.7700,12.0000]},"properties":{"title":"Prickley Bay","code":"0789","t":-0.35,"a":6.46,"r":5.77}},
    {"type":"Feature","geometry":{"type":"Point","coordinates":[-72.3500,18.5700]},"properties":{"title":"Port Au Prince","code":"0799","t":2.61,"a":5.19,"r":6.28}},
    {"type":"Feature","geometry":{"type":"Point","coordinates":[16.1500,69.3200]},"properties":{"title":"Andenes","code":"0800","t":0.18,"a":9.00,"r":9.15}},
    {"type":"Feature","geometry":{"type":"Point","coordinates":[25.9800,70.9800]},"properties":{"title":"Honningsvag","code":"0801","t":0.03,"a":8.02,"r":8.46}},
    {"type":"Feature","geometry":{"type":"Point","coordinates":[5.1200,61.9300]},"properties":{"title":"Maloy","code":"0802","t":0.23,"a":9.63,"r":9.90}},
    {"type":"Feature","geometry":{"type":"Point","coordinates":[11.2500,64.8700]},"properties":{"title":"Rorvik","code":"0803","t":0.04,"a":10.02,"r":10.53}},
    {"type":"Feature","geometry":{"type":"Point","coordinates":[7.5700,58.0000]},"properties":{"title":"Tregde","code":"0804","t":0.07,"a":6.71,"r":7.25}},
    {"type":"Feature","geometry":{"type":"Point","coordinates":[31.1000,70.3300]},"properties":{"title":"Vardo","code":"0805","t":0.07,"a":7.58,"r":8.89}},
    {"type":"Feature","geometry":{"type":"Point","coordinates":[-15.9500,18.1000]},"properties":{"title":"Nouakchott","code":"0806","t":2.22,"a":11.05,"r":10.29}},
    {"type":"Feature","geometry":{"type":"Point","coordinates":[29.9200,31.2200]},"properties":{"title":"Alexandria","code":"0807","t":0.34,"a":7.44,"r":8.62}},
    {"type":"Feature","geometry":{"type":"Point","coordinates":[-68.0000,76.0000]},"properties":{"title":"Thule","code":"0808","t":-1.93,"a":6.28,"r":8.62}},
    {"type":"Feature","geometry":{"type":"Point","coordinates":[-21.9800,70.4800]},"properties":{"title":"Scoresbysund","code":"0809","t":-0.96,"a":5.36,"r":9.16}},
    {"type":"Feature","geometry":{"type":"Point","coordinates":[9.1300,4.2200]},"properties":{"title":"Port Sonara","code":"0816","t":0.93,"a":6.89,"r":6.41}},
    {"type":"Feature","geometry":{"type":"Point","coordinates":[11.2200,58.3500]},"properties":{"title":"Smogen","code":"0818","t":-0.23,"a":7.77,"r":10.75}},
    {"type":"Feature","geometry":{"type":"Point","coordinates":[11.8000,57.6800]},"properties":{"title":"Gothenburg","code":"0819","t":0.11,"a":7.17,"r":11.25}},
    {"type":"Feature","geometry":{"type":"Point","coordinates":[-51.7200,64.1700]},"properties":{"title":"Nuuk","code":"0820","t":-7.03,"a":8.52,"r":9.01}},
    {"type":"Feature","geometry":{"type":"Point","coordinates":[-4.5000,48.3800]},"properties":{"title":"Brest","code":"0822","t":0.21,"a":4.99,"r":6.13}},
    {"type":"Feature","geometry":{"type":"Point","coordinates":[5.3500,43.3000]},"properties":{"title":"Marseille","code":"0824","t":0.44,"a":5.68,"r":7.31}},
    {"type":"Feature","geometry":{"type":"Point","coordinates":[8.7200,53.8700]},"properties":{"title":"Cuxhaven","code":"0825","t":0.27,"a":8.12,"r":20.75}},
    {"type":"Feature","geometry":{"type":"Point","coordinates":[18.0800,59.3200]},"properties":{"title":"Stockholm","code":"0826","t":-0.13,"a":5.80,"r":15.83}},
    {"type":"Feature","geometry":{"type":"Point","coordinates":[13.7700,45.6500]},"properties":{"title":"Trieste(sartorio)","code":"0829","t":-0.02,"a":6.12,"r":8.14}},
    {"type":"Feature","geometry":{"type":"Point","coordinates":[-8.4000,43.3700]},"properties":{"title":"La Coruna","code":"0830","t":0.35,"a":4.61,"r":6.90}},
    {"type":"Feature","geometry":{"type":"Point","coordinates":[-61.7000,56.5500]},"properties":{"title":"Nain","code":"0833","t":-0.46,"a":4.62,"r":7.90}},
    {"type":"Feature","geometry":{"type":"Point","coordinates":[-7.3300,55.3700]},"properties":{"title":"Malin Head","code":"0834","t":-2.43,"a":6.30,"r":9.93}},
    {"type":"Feature","geometry":{"type":"Point","coordinates":[-7.3300,55.3700]},"properties":{"title":"Castletownsend","code":"0835","t":-0.00,"a":4.72,"r":9.27}},
    {"type":"Feature","geometry":{"type":"Point","coordinates":[-62.3200,82.5000]},"properties":{"title":"Alert","code":"0836","t":23.63,"a":6.90,"r":4.30}},
    {"type":"Feature","geometry":{"type":"Point","coordinates":[-69.0200,12.1800]},"properties":{"title":"Bullen Bay","code":"0878","t":1.19,"a":4.71,"r":6.08}},
    {"type":"Feature","geometry":{"type":"Point","coordinates":[35.5000,-23.9200]},"properties":{"title":"Inhambane","code":"0900","t":1.00,"a":2.40,"r":7.13}},
    {"type":"Feature","geometry":{"type":"Point","coordinates":[97.6200,16.4800]},"properties":{"title":"Moulmein","code":"0906","t":1.33,"a":58.14,"r":45.83}},
    {"type":"Feature","geometry":{"type":"Point","coordinates":[92.7700,11.6800]},"properties":{"title":"Sittwe","code":"0907","t":1.28,"a":23.09,"r":19.40}},
    {"type":"Feature","geometry":{"type":"Point","coordinates":[92.7700,11.6800]},"properties":{"title":"Port Blair","code":"0908","t":31.05,"a":8.81,"r":45.50}},
    {"type":"Feature","geometry":{"type":"Point","coordinates":[97.8200,0.5500]},"properties":{"title":"Telukdalam(teda)","code":"0913","t":-0.28,"a":3.43,"r":10.06}},
    {"type":"Feature","geometry":{"type":"Point","coordinates":[96.1300,5.1300]},"properties":{"title":"Meulaboh","code":"0914","t":0.26,"a":2.25,"r":8.40}},
    {"type":"Feature","geometry":{"type":"Point","coordinates":[60.6000,25.3000]},"properties":{"title":"Chabahar","code":"0915","t":0.51,"a":6.83,"r":7.09}},
    {"type":"Feature","geometry":{"type":"Point","coordinates":[37.8700,-46.8700]},"properties":{"title":"Marion","code":"0920","t":1.47,"a":1.38,"r":9.51}},
    {"type":"Feature","geometry":{"type":"Point","coordinates":[40.1800,-10.2800]},"properties":{"title":"Mitwara","code":"0922","t":0.04,"a":1.90,"r":5.16}}]};